time,header,status,latitude,longitude,altitude,position_covariance,position_covariance_type
2023/07/13 14:47:53.651461755,"{'stamp': {'secs': 1689252473, 'nsecs': 633868494}, 'frame_id': 'base_link'}","{'status': 0, 'service': 1}",55.4699754,10.3295501,54.550562422123036,{'': ''},2
2023/07/13 14:47:53.749411316,"{'stamp': {'secs': 1689252473, 'nsecs': 739140990}, 'frame_id': 'base_link'}","{'status': 0, 'service': 1}",55.4699754,10.3295501,54.550562422123036,{'': ''},2
2023/07/13 14:47:53.847414359,"{'stamp': {'secs': 1689252473, 'nsecs': 835202554}, 'frame_id': 'base_link'}","{'status': 0, 'service': 1}",55.4699754,10.3295501,54.550562422123036,{'': ''},2
2023/07/13 14:47:53.935574884,"{'stamp': {'secs': 1689252473, 'nsecs': 931078362}, 'frame_id': 'base_link'}","{'status': 0, 'service': 1}",55.4699754,10.3295501,54.550562422123036,{'': ''},2
2023/07/13 14:47:54.40377002,"{'stamp': {'secs': 1689252474, 'nsecs': 34643919}, 'frame_id': 'base_link'}","{'status': 0, 'service': 1}",55.4699754,10.3295502,54.56056225642193,{'': ''},2
2023/07/13 14:47:54.133083822,"{'stamp': {'secs': 1689252474, 'nsecs': 131481229}, 'frame_id': 'base_link'}","{'status': 0, 'service': 1}",55.4699754,10.3295502,54.56056225642193,{'': ''},2
2023/07/13 14:47:54.230718531,"{'stamp': {'secs': 1689252474, 'nsecs': 229605544}, 'frame_id': 'base_link'}","{'status': 0, 'service': 1}",55.4699754,10.3295503,54.55056209072083,{'': ''},2
2023/07/13 14:47:54.336315501,"{'stamp': {'secs': 1689252474, 'nsecs': 330162849}, 'frame_id': 'base_link'}","{'status': 0, 'service': 1}",55.4699754,10.3295503,54.55056209072083,{'': ''},2
2023/07/13 14:47:54.433010220,"{'stamp': {'secs': 1689252474, 'nsecs': 431122964}, 'frame_id': 'base_link'}","{'status': 0, 'service': 1}",55.4699754,10.3295504,54.55056192501971,{'': ''},2
2023/07/13 14:47:54.547512645,"{'stamp': {'secs': 1689252474, 'nsecs': 539970212}, 'frame_id': 'base_link'}","{'status': 0, 'service': 1}",55.4699754,10.3295504,54.55056192501971,{'': ''},2
2023/07/13 14:47:54.651905703,"{'stamp': {'secs': 1689252474, 'nsecs': 635561962}, 'frame_id': 'base_link'}","{'status': 0, 'service': 1}",55.4699754,10.3295505,54.55056175931858,{'': ''},2
2023/07/13 14:47:54.739654728,"{'stamp': {'secs': 1689252474, 'nsecs': 732213108}, 'frame_id': 'base_link'}","{'status': 0, 'service': 1}",55.4699754,10.3295506,54.55056159361744,{'': ''},2
2023/07/13 14:47:54.837590414,"{'stamp': {'secs': 1689252474, 'nsecs': 834399228}, 'frame_id': 'base_link'}","{'status': 0, 'service': 1}",55.4699754,10.3295507,54.55056142791629,{'': ''},2
2023/07/13 14:47:54.932584708,"{'stamp': {'secs': 1689252474, 'nsecs': 929656556}, 'frame_id': 'base_link'}","{'status': 0, 'service': 1}",55.4699754,10.3295507,54.55056142791629,{'': ''},2
2023/07/13 14:47:55.33951805,"{'stamp': {'secs': 1689252475, 'nsecs': 32038864}, 'frame_id': 'base_link'}","{'status': 0, 'service': 1}",55.4699754,10.3295507,54.55056142791629,{'': ''},2
2023/07/13 14:47:55.145778628,"{'stamp': {'secs': 1689252475, 'nsecs': 138327563}, 'frame_id': 'base_link'}","{'status': 0, 'service': 1}",55.4699754,10.3295507,54.56056142791629,{'': ''},2
2023/07/13 14:47:55.229945890,"{'stamp': {'secs': 1689252475, 'nsecs': 229083048}, 'frame_id': 'base_link'}","{'status': 0, 'service': 1}",55.4699754,10.3295508,54.56056126221517,{'': ''},2
2023/07/13 14:47:55.344307703,"{'stamp': {'secs': 1689252475, 'nsecs': 333991800}, 'frame_id': 'base_link'}","{'status': 0, 'service': 1}",55.4699754,10.3295509,54.56056109651402,{'': ''},2
2023/07/13 14:47:55.430270297,"{'stamp': {'secs': 1689252475, 'nsecs': 428635315}, 'frame_id': 'base_link'}","{'status': 0, 'service': 1}",55.4699754,10.3295509,54.56056109651402,{'': ''},2
2023/07/13 14:47:55.532896889,"{'stamp': {'secs': 1689252475, 'nsecs': 530493842}, 'frame_id': 'base_link'}","{'status': 0, 'service': 1}",55.4699754,10.3295509,54.56056109651402,{'': ''},2
2023/07/13 14:47:55.632755698,"{'stamp': {'secs': 1689252475, 'nsecs': 631011532}, 'frame_id': 'base_link'}","{'status': 0, 'service': 1}",55.4699754,10.3295509,54.56056109651402,{'': ''},2
2023/07/13 14:47:56.38720420,"{'stamp': {'secs': 1689252475, 'nsecs': 729926981}, 'frame_id': 'base_link'}","{'status': 0, 'service': 1}",55.4699753,10.3295509,54.56056125022968,{'': ''},2
2023/07/13 14:47:56.44734613,"{'stamp': {'secs': 1689252475, 'nsecs': 829849659}, 'frame_id': 'base_link'}","{'status': 0, 'service': 1}",55.4699754,10.329551,54.560560930812855,{'': ''},2
2023/07/13 14:47:56.48001077,"{'stamp': {'secs': 1689252475, 'nsecs': 930303684}, 'frame_id': 'base_link'}","{'status': 0, 'service': 1}",55.4699754,10.329551,54.560560930812855,{'': ''},2
2023/07/13 14:47:56.48637588,"{'stamp': {'secs': 1689252476, 'nsecs': 31340557}, 'frame_id': 'base_link'}","{'status': 0, 'service': 1}",55.4699754,10.3295511,54.56056076511169,{'': ''},2
2023/07/13 14:47:56.130783681,"{'stamp': {'secs': 1689252476, 'nsecs': 128019248}, 'frame_id': 'base_link'}","{'status': 0, 'service': 1}",55.4699754,10.3295512,54.550560599410545,{'': ''},2
2023/07/13 14:47:56.235046844,"{'stamp': {'secs': 1689252476, 'nsecs': 231801491}, 'frame_id': 'base_link'}","{'status': 0, 'service': 1}",55.4699754,10.3295513,54.55056043370936,{'': ''},2
2023/07/13 14:47:56.331171930,"{'stamp': {'secs': 1689252476, 'nsecs': 330384939}, 'frame_id': 'base_link'}","{'status': 0, 'service': 1}",55.4699754,10.3295514,54.55056026800819,{'': ''},2
2023/07/13 14:47:56.432361238,"{'stamp': {'secs': 1689252476, 'nsecs': 430466277}, 'frame_id': 'base_link'}","{'status': 0, 'service': 1}",55.4699754,10.3295514,54.55056026800819,{'': ''},2
2023/07/13 14:47:56.543963523,"{'stamp': {'secs': 1689252476, 'nsecs': 534278593}, 'frame_id': 'base_link'}","{'status': 0, 'service': 1}",55.4699754,10.3295515,54.540560102307005,{'': ''},2
2023/07/13 14:47:56.636127209,"{'stamp': {'secs': 1689252476, 'nsecs': 632330862}, 'frame_id': 'base_link'}","{'status': 0, 'service': 1}",55.4699754,10.3295515,54.550560102307,{'': ''},2
2023/07/13 14:47:56.731002772,"{'stamp': {'secs': 1689252476, 'nsecs': 730098115}, 'frame_id': 'base_link'}","{'status': 0, 'service': 1}",55.4699754,10.3295515,54.550560102307,{'': ''},2
2023/07/13 14:47:56.833599620,"{'stamp': {'secs': 1689252476, 'nsecs': 829724385}, 'frame_id': 'base_link'}","{'status': 0, 'service': 1}",55.4699754,10.3295516,54.55055993660581,{'': ''},2
2023/07/13 14:47:56.934660614,"{'stamp': {'secs': 1689252476, 'nsecs': 931114190}, 'frame_id': 'base_link'}","{'status': 0, 'service': 1}",55.4699754,10.3295516,54.55055993660581,{'': ''},2
2023/07/13 14:47:57.29631106,"{'stamp': {'secs': 1689252477, 'nsecs': 28708672}, 'frame_id': 'base_link'}","{'status': 0, 'service': 1}",55.4699754,10.3295517,54.55055977090462,{'': ''},2
2023/07/13 14:47:57.134960290,"{'stamp': {'secs': 1689252477, 'nsecs': 130106102}, 'frame_id': 'base_link'}","{'status': 0, 'service': 1}",55.4699754,10.3295517,54.55055977090462,{'': ''},2
2023/07/13 14:47:57.231596292,"{'stamp': {'secs': 1689252477, 'nsecs': 230217066}, 'frame_id': 'base_link'}","{'status': 0, 'service': 1}",55.4699755,10.3295517,54.55055961718888,{'': ''},2
2023/07/13 14:47:57.333315423,"{'stamp': {'secs': 1689252477, 'nsecs': 330771617}, 'frame_id': 'base_link'}","{'status': 0, 'service': 1}",55.4699755,10.3295518,54.550559451487665,{'': ''},2
2023/07/13 14:47:57.431194818,"{'stamp': {'secs': 1689252477, 'nsecs': 429763296}, 'frame_id': 'base_link'}","{'status': 0, 'service': 1}",55.4699755,10.3295518,54.550559451487665,{'': ''},2
2023/07/13 14:47:57.532098532,"{'stamp': {'secs': 1689252477, 'nsecs': 530955100}, 'frame_id': 'base_link'}","{'status': 0, 'service': 1}",55.4699755,10.3295518,54.550559451487665,{'': ''},2
2023/07/13 14:47:57.635296721,"{'stamp': {'secs': 1689252477, 'nsecs': 631734297}, 'frame_id': 'base_link'}","{'status': 0, 'service': 1}",55.4699755,10.3295519,54.550559285786434,{'': ''},2
2023/07/13 14:47:57.732593252,"{'stamp': {'secs': 1689252477, 'nsecs': 731656540}, 'frame_id': 'base_link'}","{'status': 0, 'service': 1}",55.4699755,10.3295519,54.550559285786434,{'': ''},2
2023/07/13 14:47:57.835960865,"{'stamp': {'secs': 1689252477, 'nsecs': 831862669}, 'frame_id': 'base_link'}","{'status': 0, 'service': 1}",55.4699756,10.3295519,54.550559132070646,{'': ''},2
2023/07/13 14:47:57.933006140,"{'stamp': {'secs': 1689252477, 'nsecs': 930975236}, 'frame_id': 'base_link'}","{'status': 0, 'service': 1}",55.4699756,10.3295519,54.54055913207065,{'': ''},2
2023/07/13 14:47:58.33399234,"{'stamp': {'secs': 1689252478, 'nsecs': 31736511}, 'frame_id': 'base_link'}","{'status': 0, 'service': 1}",55.4699756,10.329552,54.54055896636944,{'': ''},2
2023/07/13 14:47:58.136873935,"{'stamp': {'secs': 1689252478, 'nsecs': 130611928}, 'frame_id': 'base_link'}","{'status': 0, 'service': 1}",55.4699756,10.329552,54.54055896636944,{'': ''},2
2023/07/13 14:47:58.231001569,"{'stamp': {'secs': 1689252478, 'nsecs': 229870266}, 'frame_id': 'base_link'}","{'status': 0, 'service': 1}",55.4699756,10.329552,54.54055896636944,{'': ''},2
2023/07/13 14:47:58.334106958,"{'stamp': {'secs': 1689252478, 'nsecs': 329733654}, 'frame_id': 'base_link'}","{'status': 0, 'service': 1}",55.4699756,10.3295521,54.54055880066819,{'': ''},2
2023/07/13 14:47:58.431163524,"{'stamp': {'secs': 1689252478, 'nsecs': 428525052}, 'frame_id': 'base_link'}","{'status': 0, 'service': 1}",55.4699757,10.3295521,54.54055864695238,{'': ''},2
2023/07/13 14:47:58.541255597,"{'stamp': {'secs': 1689252478, 'nsecs': 530127384}, 'frame_id': 'base_link'}","{'status': 0, 'service': 1}",55.4699757,10.3295522,54.5405584812511,{'': ''},2
2023/07/13 14:47:58.632023527,"{'stamp': {'secs': 1689252478, 'nsecs': 631367849}, 'frame_id': 'base_link'}","{'status': 0, 'service': 1}",55.4699757,10.3295522,54.5405584812511,{'': ''},2
2023/07/13 14:47:58.733228326,"{'stamp': {'secs': 1689252478, 'nsecs': 730642928}, 'frame_id': 'base_link'}","{'status': 0, 'service': 1}",55.4699757,10.3295523,54.550558315549864,{'': ''},2
2023/07/13 14:47:58.829523770,"{'stamp': {'secs': 1689252478, 'nsecs': 828508800}, 'frame_id': 'base_link'}","{'status': 0, 'service': 1}",55.4699757,10.3295523,54.550558315549864,{'': ''},2
2023/07/13 14:47:58.935061930,"{'stamp': {'secs': 1689252478, 'nsecs': 932865046}, 'frame_id': 'base_link'}","{'status': 0, 'service': 1}",55.4699757,10.3295524,54.550558149848584,{'': ''},2
2023/07/13 14:47:59.32184944,"{'stamp': {'secs': 1689252479, 'nsecs': 30378555}, 'frame_id': 'base_link'}","{'status': 0, 'service': 1}",55.4699757,10.3295524,54.550558149848584,{'': ''},2
2023/07/13 14:47:59.133365794,"{'stamp': {'secs': 1689252479, 'nsecs': 130364640}, 'frame_id': 'base_link'}","{'status': 0, 'service': 1}",55.4699757,10.3295525,54.55055798414731,{'': ''},2
2023/07/13 14:47:59.234699994,"{'stamp': {'secs': 1689252479, 'nsecs': 231231679}, 'frame_id': 'base_link'}","{'status': 0, 'service': 1}",55.4699757,10.3295525,54.55055798414731,{'': ''},2
2023/07/13 14:47:59.333694885,"{'stamp': {'secs': 1689252479, 'nsecs': 331507575}, 'frame_id': 'base_link'}","{'status': 0, 'service': 1}",55.4699757,10.3295525,54.55055798414731,{'': ''},2
2023/07/13 14:47:59.430997314,"{'stamp': {'secs': 1689252479, 'nsecs': 430245488}, 'frame_id': 'base_link'}","{'status': 0, 'service': 1}",55.4699757,10.3295526,54.56055781844606,{'': ''},2
2023/07/13 14:47:59.532592419,"{'stamp': {'secs': 1689252479, 'nsecs': 530481608}, 'frame_id': 'base_link'}","{'status': 0, 'service': 1}",55.4699757,10.3295526,54.56055781844606,{'': ''},2
2023/07/13 14:47:59.631806641,"{'stamp': {'secs': 1689252479, 'nsecs': 630497840}, 'frame_id': 'base_link'}","{'status': 0, 'service': 1}",55.4699757,10.3295527,54.55055765274478,{'': ''},2
2023/07/13 14:47:59.735685018,"{'stamp': {'secs': 1689252479, 'nsecs': 729151736}, 'frame_id': 'base_link'}","{'status': 0, 'service': 1}",55.4699757,10.3295528,54.550557487043484,{'': ''},2
2023/07/13 14:47:59.830363604,"{'stamp': {'secs': 1689252479, 'nsecs': 827938574}, 'frame_id': 'base_link'}","{'status': 0, 'service': 1}",55.4699757,10.3295529,54.55055732134218,{'': ''},2
2023/07/13 14:47:59.933658098,"{'stamp': {'secs': 1689252479, 'nsecs': 931644360}, 'frame_id': 'base_link'}","{'status': 0, 'service': 1}",55.4699757,10.3295529,54.55055732134218,{'': ''},2
2023/07/13 14:48:00.30915698,"{'stamp': {'secs': 1689252480, 'nsecs': 29791061}, 'frame_id': 'base_link'}","{'status': 0, 'service': 1}",55.4699758,10.3295531,54.54055683622369,{'': ''},2
2023/07/13 14:48:00.134734126,"{'stamp': {'secs': 1689252480, 'nsecs': 131129571}, 'frame_id': 'base_link'}","{'status': 0, 'service': 1}",55.4699758,10.3295531,54.54055683622369,{'': ''},2
2023/07/13 14:48:00.234687466,"{'stamp': {'secs': 1689252480, 'nsecs': 231819903}, 'frame_id': 'base_link'}","{'status': 0, 'service': 1}",55.4699759,10.3295533,54.54055635110513,{'': ''},2
2023/07/13 14:48:00.333794648,"{'stamp': {'secs': 1689252480, 'nsecs': 330822642}, 'frame_id': 'base_link'}","{'status': 0, 'service': 1}",55.4699759,10.3295533,54.54055635110513,{'': ''},2
2023/07/13 14:48:00.432299262,"{'stamp': {'secs': 1689252480, 'nsecs': 427074687}, 'frame_id': 'base_link'}","{'status': 0, 'service': 1}",55.4699759,10.3295534,54.530556185403796,{'': ''},2
2023/07/13 14:48:00.531728421,"{'stamp': {'secs': 1689252480, 'nsecs': 528307383}, 'frame_id': 'base_link'}","{'status': 0, 'service': 1}",55.4699759,10.3295535,54.530556019702445,{'': ''},2
2023/07/13 14:48:00.630074815,"{'stamp': {'secs': 1689252480, 'nsecs': 628807717}, 'frame_id': 'base_link'}","{'status': 0, 'service': 1}",55.4699759,10.3295535,54.530556019702445,{'': ''},2
2023/07/13 14:48:00.735417376,"{'stamp': {'secs': 1689252480, 'nsecs': 730031043}, 'frame_id': 'base_link'}","{'status': 0, 'service': 1}",55.4699759,10.3295535,54.530556019702445,{'': ''},2
2023/07/13 14:48:00.831837901,"{'stamp': {'secs': 1689252480, 'nsecs': 829622776}, 'frame_id': 'base_link'}","{'status': 0, 'service': 1}",55.4699759,10.3295536,54.53055585400111,{'': ''},2
2023/07/13 14:48:00.930004370,"{'stamp': {'secs': 1689252480, 'nsecs': 929016399}, 'frame_id': 'base_link'}","{'status': 0, 'service': 1}",55.4699759,10.3295537,54.520555688299744,{'': ''},2
2023/07/13 14:48:01.31908267,"{'stamp': {'secs': 1689252481, 'nsecs': 29403367}, 'frame_id': 'base_link'}","{'status': 0, 'service': 1}",55.4699759,10.3295538,54.5205555225984,{'': ''},2
2023/07/13 14:48:01.131864991,"{'stamp': {'secs': 1689252481, 'nsecs': 129709161}, 'frame_id': 'base_link'}","{'status': 0, 'service': 1}",55.4699759,10.3295538,54.5205555225984,{'': ''},2
2023/07/13 14:48:01.234998792,"{'stamp': {'secs': 1689252481, 'nsecs': 230704504}, 'frame_id': 'base_link'}","{'status': 0, 'service': 1}",55.469976,10.3295539,54.52055520318103,{'': ''},2
2023/07/13 14:48:01.336281428,"{'stamp': {'secs': 1689252481, 'nsecs': 330926835}, 'frame_id': 'base_link'}","{'status': 0, 'service': 1}",55.469976,10.3295539,54.52055520318103,{'': ''},2
2023/07/13 14:48:01.434581465,"{'stamp': {'secs': 1689252481, 'nsecs': 431308036}, 'frame_id': 'base_link'}","{'status': 0, 'service': 1}",55.469976,10.329554,54.51055503747965,{'': ''},2
2023/07/13 14:48:01.533721993,"{'stamp': {'secs': 1689252481, 'nsecs': 531481794}, 'frame_id': 'base_link'}","{'status': 0, 'service': 1}",55.4699761,10.3295541,54.51055471806223,{'': ''},2
2023/07/13 14:48:01.630638452,"{'stamp': {'secs': 1689252481, 'nsecs': 628641287}, 'frame_id': 'base_link'}","{'status': 0, 'service': 1}",55.4699761,10.3295541,54.50055471806223,{'': ''},2
2023/07/13 14:48:01.740887568,"{'stamp': {'secs': 1689252481, 'nsecs': 729809609}, 'frame_id': 'base_link'}","{'status': 0, 'service': 1}",55.4699761,10.3295542,54.50055455236085,{'': ''},2
2023/07/13 14:48:01.831615110,"{'stamp': {'secs': 1689252481, 'nsecs': 829807684}, 'frame_id': 'base_link'}","{'status': 0, 'service': 1}",55.4699761,10.3295543,54.500554386659445,{'': ''},2
2023/07/13 14:48:01.932041902,"{'stamp': {'secs': 1689252481, 'nsecs': 929800314}, 'frame_id': 'base_link'}","{'status': 0, 'service': 1}",55.4699762,10.3295543,54.490554232943396,{'': ''},2
2023/07/13 14:48:02.32321108,"{'stamp': {'secs': 1689252482, 'nsecs': 30078890}, 'frame_id': 'base_link'}","{'status': 0, 'service': 1}",55.4699762,10.3295544,54.49055406724196,{'': ''},2
2023/07/13 14:48:02.131892571,"{'stamp': {'secs': 1689252482, 'nsecs': 128089795}, 'frame_id': 'base_link'}","{'status': 0, 'service': 1}",55.4699763,10.3295545,54.490553747824436,{'': ''},2
2023/07/13 14:48:02.232559634,"{'stamp': {'secs': 1689252482, 'nsecs': 231443053}, 'frame_id': 'base_link'}","{'status': 0, 'service': 1}",55.4699764,10.3295546,54.4905534284069,{'': ''},2
2023/07/13 14:48:02.332993255,"{'stamp': {'secs': 1689252482, 'nsecs': 330816258}, 'frame_id': 'base_link'}","{'status': 0, 'service': 1}",55.4699764,10.3295547,54.49055326270545,{'': ''},2
2023/07/13 14:48:02.428712961,"{'stamp': {'secs': 1689252482, 'nsecs': 427819544}, 'frame_id': 'base_link'}","{'status': 0, 'service': 1}",55.4699764,10.3295548,54.49055309700401,{'': ''},2
2023/07/13 14:48:02.537141333,"{'stamp': {'secs': 1689252482, 'nsecs': 531754462}, 'frame_id': 'base_link'}","{'status': 0, 'service': 1}",55.4699765,10.3295548,54.480552943287854,{'': ''},2
2023/07/13 14:48:02.631566441,"{'stamp': {'secs': 1689252482, 'nsecs': 628557713}, 'frame_id': 'base_link'}","{'status': 0, 'service': 1}",55.4699765,10.3295549,54.48055277758638,{'': ''},2
2023/07/13 14:48:02.731457197,"{'stamp': {'secs': 1689252482, 'nsecs': 729007296}, 'frame_id': 'base_link'}","{'status': 0, 'service': 1}",55.4699766,10.329555,54.48055245816871,{'': ''},2
2023/07/13 14:48:02.831667079,"{'stamp': {'secs': 1689252482, 'nsecs': 830246520}, 'frame_id': 'base_link'}","{'status': 0, 'service': 1}",55.4699766,10.329555,54.49055245816871,{'': ''},2
2023/07/13 14:48:02.934416010,"{'stamp': {'secs': 1689252482, 'nsecs': 931022804}, 'frame_id': 'base_link'}","{'status': 0, 'service': 1}",55.4699766,10.3295551,54.49055229246724,{'': ''},2
2023/07/13 14:48:03.30021536,"{'stamp': {'secs': 1689252483, 'nsecs': 28393978}, 'frame_id': 'base_link'}","{'status': 0, 'service': 1}",55.4699767,10.3295552,54.490551973049534,{'': ''},2
2023/07/13 14:48:03.132028654,"{'stamp': {'secs': 1689252483, 'nsecs': 130536928}, 'frame_id': 'base_link'}","{'status': 0, 'service': 1}",55.4699767,10.3295552,54.490551973049534,{'': ''},2
2023/07/13 14:48:03.233323187,"{'stamp': {'secs': 1689252483, 'nsecs': 232393048}, 'frame_id': 'base_link'}","{'status': 0, 'service': 1}",55.4699767,10.3295553,54.49055180734803,{'': ''},2
2023/07/13 14:48:03.331531825,"{'stamp': {'secs': 1689252483, 'nsecs': 327257461}, 'frame_id': 'base_link'}","{'status': 0, 'service': 1}",55.4699768,10.3295554,54.49055148793026,{'': ''},2
2023/07/13 14:48:03.432359733,"{'stamp': {'secs': 1689252483, 'nsecs': 429950794}, 'frame_id': 'base_link'}","{'status': 0, 'service': 1}",55.4699768,10.3295555,54.49055132222874,{'': ''},2
2023/07/13 14:48:03.535473192,"{'stamp': {'secs': 1689252483, 'nsecs': 530667796}, 'frame_id': 'base_link'}","{'status': 0, 'service': 1}",55.4699768,10.3295555,54.49055132222874,{'': ''},2
2023/07/13 14:48:03.638166396,"{'stamp': {'secs': 1689252483, 'nsecs': 631007320}, 'frame_id': 'base_link'}","{'status': 0, 'service': 1}",55.4699769,10.3295556,54.480551002810934,{'': ''},2
2023/07/13 14:48:03.734759235,"{'stamp': {'secs': 1689252483, 'nsecs': 730915181}, 'frame_id': 'base_link'}","{'status': 0, 'service': 1}",55.469977,10.3295557,54.48055068339309,{'': ''},2
2023/07/13 14:48:03.830345992,"{'stamp': {'secs': 1689252483, 'nsecs': 828563696}, 'frame_id': 'base_link'}","{'status': 0, 'service': 1}",55.469977,10.3295557,54.48055068339309,{'': ''},2
2023/07/13 14:48:03.937979795,"{'stamp': {'secs': 1689252483, 'nsecs': 931842227}, 'frame_id': 'base_link'}","{'status': 0, 'service': 1}",55.4699771,10.3295557,54.480550529676755,{'': ''},2
2023/07/13 14:48:04.33494946,"{'stamp': {'secs': 1689252484, 'nsecs': 30958138}, 'frame_id': 'base_link'}","{'status': 0, 'service': 1}",55.4699771,10.3295557,54.480550529676755,{'': ''},2
2023/07/13 14:48:04.130545293,"{'stamp': {'secs': 1689252484, 'nsecs': 128987883}, 'frame_id': 'base_link'}","{'status': 0, 'service': 1}",55.4699772,10.3295557,54.4705503759604,{'': ''},2
2023/07/13 14:48:04.229670435,"{'stamp': {'secs': 1689252484, 'nsecs': 226841315}, 'frame_id': 'base_link'}","{'status': 0, 'service': 1}",55.4699772,10.3295558,54.47055021025884,{'': ''},2
2023/07/13 14:48:04.336870034,"{'stamp': {'secs': 1689252484, 'nsecs': 331052036}, 'frame_id': 'base_link'}","{'status': 0, 'service': 1}",55.4699772,10.3295558,54.47055021025884,{'': ''},2
2023/07/13 14:48:04.429846237,"{'stamp': {'secs': 1689252484, 'nsecs': 428299604}, 'frame_id': 'base_link'}","{'status': 0, 'service': 1}",55.4699773,10.3295558,54.470550056542464,{'': ''},2
2023/07/13 14:48:04.537880364,"{'stamp': {'secs': 1689252484, 'nsecs': 532837192}, 'frame_id': 'base_link'}","{'status': 0, 'service': 1}",55.4699773,10.3295558,54.470550056542464,{'': ''},2
2023/07/13 14:48:04.639374427,"{'stamp': {'secs': 1689252484, 'nsecs': 630286684}, 'frame_id': 'base_link'}","{'status': 0, 'service': 1}",55.4699774,10.3295559,54.470549737124486,{'': ''},2
2023/07/13 14:48:04.731127994,"{'stamp': {'secs': 1689252484, 'nsecs': 728259652}, 'frame_id': 'base_link'}","{'status': 0, 'service': 1}",55.4699774,10.3295559,54.470549737124486,{'': ''},2
2023/07/13 14:48:04.833594547,"{'stamp': {'secs': 1689252484, 'nsecs': 830909666}, 'frame_id': 'base_link'}","{'status': 0, 'service': 1}",55.4699774,10.3295559,54.470549737124486,{'': ''},2
2023/07/13 14:48:04.931616052,"{'stamp': {'secs': 1689252484, 'nsecs': 929561498}, 'frame_id': 'base_link'}","{'status': 0, 'service': 1}",55.4699775,10.3295559,54.47054958340804,{'': ''},2
2023/07/13 14:48:05.29880817,"{'stamp': {'secs': 1689252485, 'nsecs': 28616404}, 'frame_id': 'base_link'}","{'status': 0, 'service': 1}",55.4699775,10.3295559,54.47054958340804,{'': ''},2
2023/07/13 14:48:05.130647567,"{'stamp': {'secs': 1689252485, 'nsecs': 128307071}, 'frame_id': 'base_link'}","{'status': 0, 'service': 1}",55.4699775,10.3295559,54.47054958340804,{'': ''},2
2023/07/13 14:48:05.232702711,"{'stamp': {'secs': 1689252485, 'nsecs': 229284578}, 'frame_id': 'base_link'}","{'status': 0, 'service': 1}",55.4699776,10.329556,54.47054926398997,{'': ''},2
2023/07/13 14:48:05.331564832,"{'stamp': {'secs': 1689252485, 'nsecs': 328907191}, 'frame_id': 'base_link'}","{'status': 0, 'service': 1}",55.4699776,10.329556,54.47054926398997,{'': ''},2
2023/07/13 14:48:05.432220286,"{'stamp': {'secs': 1689252485, 'nsecs': 430363286}, 'frame_id': 'base_link'}","{'status': 0, 'service': 1}",55.4699777,10.3295562,54.47054877887028,{'': ''},2
2023/07/13 14:48:05.529748068,"{'stamp': {'secs': 1689252485, 'nsecs': 528574135}, 'frame_id': 'base_link'}","{'status': 0, 'service': 1}",55.4699777,10.3295563,54.470548613168674,{'': ''},2
2023/07/13 14:48:05.631474753,"{'stamp': {'secs': 1689252485, 'nsecs': 630182543}, 'frame_id': 'base_link'}","{'status': 0, 'service': 1}",55.4699778,10.3295564,54.4705482937505,{'': ''},2
2023/07/13 14:48:05.737251935,"{'stamp': {'secs': 1689252485, 'nsecs': 729888822}, 'frame_id': 'base_link'}","{'status': 0, 'service': 1}",55.4699779,10.3295564,54.47054814003395,{'': ''},2
2023/07/13 14:48:05.833016864,"{'stamp': {'secs': 1689252485, 'nsecs': 829846654}, 'frame_id': 'base_link'}","{'status': 0, 'service': 1}",55.4699779,10.3295565,54.4705479743323,{'': ''},2
2023/07/13 14:48:05.931691541,"{'stamp': {'secs': 1689252485, 'nsecs': 929164140}, 'frame_id': 'base_link'}","{'status': 0, 'service': 1}",55.469978,10.3295566,54.47054765491408,{'': ''},2
2023/07/13 14:48:06.30822200,"{'stamp': {'secs': 1689252486, 'nsecs': 28824886}, 'frame_id': 'base_link'}","{'status': 0, 'service': 1}",55.4699781,10.3295567,54.46054733549579,{'': ''},2
2023/07/13 14:48:06.134203438,"{'stamp': {'secs': 1689252486, 'nsecs': 130181977}, 'frame_id': 'base_link'}","{'status': 0, 'service': 1}",55.4699781,10.3295568,54.4605471697941,{'': ''},2
2023/07/13 14:48:06.231181552,"{'stamp': {'secs': 1689252486, 'nsecs': 228839130}, 'frame_id': 'base_link'}","{'status': 0, 'service': 1}",55.4699782,10.3295569,54.45054685037579,{'': ''},2
2023/07/13 14:48:06.333083360,"{'stamp': {'secs': 1689252486, 'nsecs': 332303886}, 'frame_id': 'base_link'}","{'status': 0, 'service': 1}",55.4699782,10.329557,54.450546684674094,{'': ''},2
2023/07/13 14:48:06.432958576,"{'stamp': {'secs': 1689252486, 'nsecs': 430562062}, 'frame_id': 'base_link'}","{'status': 0, 'service': 1}",55.4699783,10.3295571,54.450546365255725,{'': ''},2
2023/07/13 14:48:06.532269149,"{'stamp': {'secs': 1689252486, 'nsecs': 530275502}, 'frame_id': 'base_link'}","{'status': 0, 'service': 1}",55.4699783,10.3295572,54.45054619955399,{'': ''},2
2023/07/13 14:48:06.633063337,"{'stamp': {'secs': 1689252486, 'nsecs': 630495399}, 'frame_id': 'base_link'}","{'status': 0, 'service': 1}",55.4699784,10.3295573,54.45054588013555,{'': ''},2
2023/07/13 14:48:06.730825018,"{'stamp': {'secs': 1689252486, 'nsecs': 727550717}, 'frame_id': 'base_link'}","{'status': 0, 'service': 1}",55.4699784,10.3295574,54.450545714433815,{'': ''},2
2023/07/13 14:48:06.831669614,"{'stamp': {'secs': 1689252486, 'nsecs': 829461080}, 'frame_id': 'base_link'}","{'status': 0, 'service': 1}",55.4699785,10.3295575,54.45054539501533,{'': ''},2
2023/07/13 14:48:06.929958864,"{'stamp': {'secs': 1689252486, 'nsecs': 928456341}, 'frame_id': 'base_link'}","{'status': 0, 'service': 1}",55.4699785,10.3295575,54.45054539501533,{'': ''},2
2023/07/13 14:48:07.35988154,"{'stamp': {'secs': 1689252487, 'nsecs': 29778769}, 'frame_id': 'base_link'}","{'status': 0, 'service': 1}",55.4699786,10.3295576,54.45054507559681,{'': ''},2
2023/07/13 14:48:07.137408405,"{'stamp': {'secs': 1689252487, 'nsecs': 128425528}, 'frame_id': 'base_link'}","{'status': 0, 'service': 1}",55.4699786,10.3295576,54.45054507559681,{'': ''},2
2023/07/13 14:48:07.233609632,"{'stamp': {'secs': 1689252487, 'nsecs': 230681882}, 'frame_id': 'base_link'}","{'status': 0, 'service': 1}",55.4699787,10.3295577,54.45054475617826,{'': ''},2
2023/07/13 14:48:07.334023671,"{'stamp': {'secs': 1689252487, 'nsecs': 331288012}, 'frame_id': 'base_link'}","{'status': 0, 'service': 1}",55.4699787,10.3295577,54.45054475617826,{'': ''},2
2023/07/13 14:48:07.430594690,"{'stamp': {'secs': 1689252487, 'nsecs': 428565395}, 'frame_id': 'base_link'}","{'status': 0, 'service': 1}",55.4699788,10.3295578,54.450544436759664,{'': ''},2
2023/07/13 14:48:07.536744822,"{'stamp': {'secs': 1689252487, 'nsecs': 529537280}, 'frame_id': 'base_link'}","{'status': 0, 'service': 1}",55.4699788,10.3295578,54.450544436759664,{'': ''},2
2023/07/13 14:48:07.630263204,"{'stamp': {'secs': 1689252487, 'nsecs': 628021337}, 'frame_id': 'base_link'}","{'status': 0, 'service': 1}",55.4699789,10.3295579,54.45054411734101,{'': ''},2
2023/07/13 14:48:07.733421569,"{'stamp': {'secs': 1689252487, 'nsecs': 728379654}, 'frame_id': 'base_link'}","{'status': 0, 'service': 1}",55.4699789,10.3295579,54.45054411734101,{'': ''},2
2023/07/13 14:48:07.829647184,"{'stamp': {'secs': 1689252487, 'nsecs': 826640750}, 'frame_id': 'base_link'}","{'status': 0, 'service': 1}",55.469979,10.3295579,54.45054396362413,{'': ''},2
2023/07/13 14:48:07.931833761,"{'stamp': {'secs': 1689252487, 'nsecs': 930555829}, 'frame_id': 'base_link'}","{'status': 0, 'service': 1}",55.469979,10.3295579,54.46054396362413,{'': ''},2
2023/07/13 14:48:08.34486005,"{'stamp': {'secs': 1689252488, 'nsecs': 29499293}, 'frame_id': 'base_link'}","{'status': 0, 'service': 1}",55.4699791,10.3295579,54.46054380990725,{'': ''},2
2023/07/13 14:48:08.135543180,"{'stamp': {'secs': 1689252488, 'nsecs': 130532320}, 'frame_id': 'base_link'}","{'status': 0, 'service': 1}",55.4699791,10.3295579,54.470543809907255,{'': ''},2
2023/07/13 14:48:08.233034851,"{'stamp': {'secs': 1689252488, 'nsecs': 230760465}, 'frame_id': 'base_link'}","{'status': 0, 'service': 1}",55.4699792,10.329558,54.47054349048855,{'': ''},2
2023/07/13 14:48:08.332640355,"{'stamp': {'secs': 1689252488, 'nsecs': 330813631}, 'frame_id': 'base_link'}","{'status': 0, 'service': 1}",55.4699793,10.3295581,54.48054317106978,{'': ''},2
2023/07/13 14:48:08.433812899,"{'stamp': {'secs': 1689252488, 'nsecs': 430037768}, 'frame_id': 'base_link'}","{'status': 0, 'service': 1}",55.4699793,10.3295582,54.48054300536792,{'': ''},2
2023/07/13 14:48:08.531339496,"{'stamp': {'secs': 1689252488, 'nsecs': 529848899}, 'frame_id': 'base_link'}","{'status': 0, 'service': 1}",55.4699794,10.3295582,54.48054285165093,{'': ''},2
2023/07/13 14:48:08.638771314,"{'stamp': {'secs': 1689252488, 'nsecs': 631119387}, 'frame_id': 'base_link'}","{'status': 0, 'service': 1}",55.4699794,10.3295583,54.48054268594908,{'': ''},2
2023/07/13 14:48:08.735540604,"{'stamp': {'secs': 1689252488, 'nsecs': 730620243}, 'frame_id': 'base_link'}","{'status': 0, 'service': 1}",55.4699794,10.3295583,54.48054268594908,{'': ''},2
2023/07/13 14:48:08.833089960,"{'stamp': {'secs': 1689252488, 'nsecs': 830982683}, 'frame_id': 'base_link'}","{'status': 0, 'service': 1}",55.4699794,10.3295583,54.48054268594908,{'': ''},2
2023/07/13 14:48:08.934208764,"{'stamp': {'secs': 1689252488, 'nsecs': 930149895}, 'frame_id': 'base_link'}","{'status': 0, 'service': 1}",55.4699794,10.3295583,54.48054268594908,{'': ''},2
2023/07/13 14:48:09.33724957,"{'stamp': {'secs': 1689252489, 'nsecs': 30939002}, 'frame_id': 'base_link'}","{'status': 0, 'service': 1}",55.4699795,10.3295584,54.48054236653023,{'': ''},2
2023/07/13 14:48:09.134795441,"{'stamp': {'secs': 1689252489, 'nsecs': 131903357}, 'frame_id': 'base_link'}","{'status': 0, 'service': 1}",55.4699795,10.3295584,54.48054236653023,{'': ''},2
2023/07/13 14:48:09.231545688,"{'stamp': {'secs': 1689252489, 'nsecs': 228592771}, 'frame_id': 'base_link'}","{'status': 0, 'service': 1}",55.4699795,10.3295584,54.48054236653023,{'': ''},2
2023/07/13 14:48:09.332476673,"{'stamp': {'secs': 1689252489, 'nsecs': 330588209}, 'frame_id': 'base_link'}","{'status': 0, 'service': 1}",55.4699795,10.3295584,54.48054236653023,{'': ''},2
2023/07/13 14:48:09.432441037,"{'stamp': {'secs': 1689252489, 'nsecs': 430714461}, 'frame_id': 'base_link'}","{'status': 0, 'service': 1}",55.4699795,10.3295584,54.48054236653023,{'': ''},2
2023/07/13 14:48:09.531909110,"{'stamp': {'secs': 1689252489, 'nsecs': 529452670}, 'frame_id': 'base_link'}","{'status': 0, 'service': 1}",55.4699796,10.3295584,54.4805422128132,{'': ''},2
2023/07/13 14:48:09.629633403,"{'stamp': {'secs': 1689252489, 'nsecs': 627742921}, 'frame_id': 'base_link'}","{'status': 0, 'service': 1}",55.4699796,10.3295584,54.4805422128132,{'': ''},2
2023/07/13 14:48:09.729247011,"{'stamp': {'secs': 1689252489, 'nsecs': 727554675}, 'frame_id': 'base_link'}","{'status': 0, 'service': 1}",55.4699796,10.3295584,54.4805422128132,{'': ''},2
2023/07/13 14:48:09.832777380,"{'stamp': {'secs': 1689252489, 'nsecs': 829814870}, 'frame_id': 'base_link'}","{'status': 0, 'service': 1}",55.4699797,10.3295584,54.480542059096145,{'': ''},2
2023/07/13 14:48:09.932594894,"{'stamp': {'secs': 1689252489, 'nsecs': 930568283}, 'frame_id': 'base_link'}","{'status': 0, 'service': 1}",55.4699797,10.3295584,54.480542059096145,{'': ''},2
2023/07/13 14:48:10.30798779,"{'stamp': {'secs': 1689252490, 'nsecs': 29683344}, 'frame_id': 'base_link'}","{'status': 0, 'service': 1}",55.4699797,10.3295584,54.480542059096145,{'': ''},2
2023/07/13 14:48:10.135114634,"{'stamp': {'secs': 1689252490, 'nsecs': 130533750}, 'frame_id': 'base_link'}","{'status': 0, 'service': 1}",55.4699798,10.3295584,54.49054190537909,{'': ''},2
2023/07/13 14:48:10.231816152,"{'stamp': {'secs': 1689252490, 'nsecs': 229772023}, 'frame_id': 'base_link'}","{'status': 0, 'service': 1}",55.4699799,10.3295584,54.49054175166202,{'': ''},2
2023/07/13 14:48:10.333879806,"{'stamp': {'secs': 1689252490, 'nsecs': 330509856}, 'frame_id': 'base_link'}","{'status': 0, 'service': 1}",55.4699799,10.3295583,54.4905419173639,{'': ''},2
2023/07/13 14:48:10.432590269,"{'stamp': {'secs': 1689252490, 'nsecs': 430834433}, 'frame_id': 'base_link'}","{'status': 0, 'service': 1}",55.4699799,10.3295583,54.4905419173639,{'': ''},2
2023/07/13 14:48:10.529253158,"{'stamp': {'secs': 1689252490, 'nsecs': 528456036}, 'frame_id': 'base_link'}","{'status': 0, 'service': 1}",55.4699799,10.3295583,54.4905419173639,{'': ''},2
2023/07/13 14:48:10.629371312,"{'stamp': {'secs': 1689252490, 'nsecs': 627296497}, 'frame_id': 'base_link'}","{'status': 0, 'service': 1}",55.4699799,10.3295583,54.4905419173639,{'': ''},2
2023/07/13 14:48:10.731562020,"{'stamp': {'secs': 1689252490, 'nsecs': 728283865}, 'frame_id': 'base_link'}","{'status': 0, 'service': 1}",55.46998,10.3295583,54.49054176364679,{'': ''},2
2023/07/13 14:48:10.836048930,"{'stamp': {'secs': 1689252490, 'nsecs': 831161104}, 'frame_id': 'base_link'}","{'status': 0, 'service': 1}",55.46998,10.3295583,54.49054176364679,{'': ''},2
2023/07/13 14:48:10.939098575,"{'stamp': {'secs': 1689252490, 'nsecs': 931301869}, 'frame_id': 'base_link'}","{'status': 0, 'service': 1}",55.46998,10.3295582,54.49054192934868,{'': ''},2
2023/07/13 14:48:11.30886086,"{'stamp': {'secs': 1689252491, 'nsecs': 28379405}, 'frame_id': 'base_link'}","{'status': 0, 'service': 1}",55.46998,10.3295583,54.49054176364679,{'': ''},2
2023/07/13 14:48:11.129715819,"{'stamp': {'secs': 1689252491, 'nsecs': 128715477}, 'frame_id': 'base_link'}","{'status': 0, 'service': 1}",55.4699801,10.3295583,54.480541609929666,{'': ''},2
2023/07/13 14:48:11.237255992,"{'stamp': {'secs': 1689252491, 'nsecs': 231356342}, 'frame_id': 'base_link'}","{'status': 0, 'service': 1}",55.4699801,10.3295583,54.480541609929666,{'': ''},2
2023/07/13 14:48:11.332043318,"{'stamp': {'secs': 1689252491, 'nsecs': 329323435}, 'frame_id': 'base_link'}","{'status': 0, 'service': 1}",55.4699801,10.3295583,54.480541609929666,{'': ''},2
2023/07/13 14:48:11.431006290,"{'stamp': {'secs': 1689252491, 'nsecs': 427896337}, 'frame_id': 'base_link'}","{'status': 0, 'service': 1}",55.4699802,10.3295583,54.48054145621253,{'': ''},2
2023/07/13 14:48:11.537127254,"{'stamp': {'secs': 1689252491, 'nsecs': 530058744}, 'frame_id': 'base_link'}","{'status': 0, 'service': 1}",55.4699802,10.3295583,54.48054145621253,{'': ''},2
2023/07/13 14:48:11.632164762,"{'stamp': {'secs': 1689252491, 'nsecs': 627051068}, 'frame_id': 'base_link'}","{'status': 0, 'service': 1}",55.4699802,10.3295583,54.48054145621253,{'': ''},2
2023/07/13 14:48:11.733562250,"{'stamp': {'secs': 1689252491, 'nsecs': 728603443}, 'frame_id': 'base_link'}","{'status': 0, 'service': 1}",55.4699802,10.3295583,54.47054145621253,{'': ''},2
2023/07/13 14:48:11.834324391,"{'stamp': {'secs': 1689252491, 'nsecs': 831682915}, 'frame_id': 'base_link'}","{'status': 0, 'service': 1}",55.4699802,10.3295583,54.47054145621253,{'': ''},2
2023/07/13 14:48:11.930846905,"{'stamp': {'secs': 1689252491, 'nsecs': 929843988}, 'frame_id': 'base_link'}","{'status': 0, 'service': 1}",55.4699803,10.3295582,54.48054146819725,{'': ''},2
2023/07/13 14:48:12.32753836,"{'stamp': {'secs': 1689252492, 'nsecs': 29648845}, 'frame_id': 'base_link'}","{'status': 0, 'service': 1}",55.4699803,10.3295582,54.48054146819725,{'': ''},2
2023/07/13 14:48:12.134515611,"{'stamp': {'secs': 1689252492, 'nsecs': 131838005}, 'frame_id': 'base_link'}","{'status': 0, 'service': 1}",55.4699803,10.3295582,54.48054146819725,{'': ''},2
2023/07/13 14:48:12.231346374,"{'stamp': {'secs': 1689252492, 'nsecs': 229486909}, 'frame_id': 'base_link'}","{'status': 0, 'service': 1}",55.4699804,10.3295582,54.480541314480085,{'': ''},2
2023/07/13 14:48:12.330134564,"{'stamp': {'secs': 1689252492, 'nsecs': 328735114}, 'frame_id': 'base_link'}","{'status': 0, 'service': 1}",55.4699804,10.3295582,54.480541314480085,{'': ''},2
2023/07/13 14:48:12.433150254,"{'stamp': {'secs': 1689252492, 'nsecs': 429849672}, 'frame_id': 'base_link'}","{'status': 0, 'service': 1}",55.4699804,10.3295582,54.480541314480085,{'': ''},2
2023/07/13 14:48:12.531359560,"{'stamp': {'secs': 1689252492, 'nsecs': 528935860}, 'frame_id': 'base_link'}","{'status': 0, 'service': 1}",55.4699805,10.3295582,54.48054116076288,{'': ''},2
2023/07/13 14:48:12.639006653,"{'stamp': {'secs': 1689252492, 'nsecs': 629835179}, 'frame_id': 'base_link'}","{'status': 0, 'service': 1}",55.4699805,10.3295582,54.49054116076289,{'': ''},2
2023/07/13 14:48:12.735089645,"{'stamp': {'secs': 1689252492, 'nsecs': 732359725}, 'frame_id': 'base_link'}","{'status': 0, 'service': 1}",55.4699805,10.3295582,54.49054116076289,{'': ''},2
2023/07/13 14:48:12.832055315,"{'stamp': {'secs': 1689252492, 'nsecs': 830596179}, 'frame_id': 'base_link'}","{'status': 0, 'service': 1}",55.4699805,10.3295582,54.49054116076289,{'': ''},2
2023/07/13 14:48:12.934985116,"{'stamp': {'secs': 1689252492, 'nsecs': 929984957}, 'frame_id': 'base_link'}","{'status': 0, 'service': 1}",55.4699805,10.3295582,54.49054116076289,{'': ''},2
2023/07/13 14:48:13.32261861,"{'stamp': {'secs': 1689252493, 'nsecs': 30473080}, 'frame_id': 'base_link'}","{'status': 0, 'service': 1}",55.4699805,10.3295582,54.48054116076288,{'': ''},2
2023/07/13 14:48:13.130170293,"{'stamp': {'secs': 1689252493, 'nsecs': 127302448}, 'frame_id': 'base_link'}","{'status': 0, 'service': 1}",55.4699805,10.3295581,54.48054132646481,{'': ''},2
2023/07/13 14:48:13.231245679,"{'stamp': {'secs': 1689252493, 'nsecs': 228626017}, 'frame_id': 'base_link'}","{'status': 0, 'service': 1}",55.4699805,10.3295581,54.47054132646481,{'': ''},2
2023/07/13 14:48:13.335382834,"{'stamp': {'secs': 1689252493, 'nsecs': 330581080}, 'frame_id': 'base_link'}","{'status': 0, 'service': 1}",55.4699805,10.3295582,54.470541160762885,{'': ''},2
2023/07/13 14:48:13.429810464,"{'stamp': {'secs': 1689252493, 'nsecs': 428032665}, 'frame_id': 'base_link'}","{'status': 0, 'service': 1}",55.4699805,10.3295582,54.46054116076289,{'': ''},2
2023/07/13 14:48:13.534388448,"{'stamp': {'secs': 1689252493, 'nsecs': 530261929}, 'frame_id': 'base_link'}","{'status': 0, 'service': 1}",55.4699805,10.3295582,54.46054116076289,{'': ''},2
2023/07/13 14:48:13.632230159,"{'stamp': {'secs': 1689252493, 'nsecs': 630205455}, 'frame_id': 'base_link'}","{'status': 0, 'service': 1}",55.4699804,10.3295581,54.460541480182016,{'': ''},2
2023/07/13 14:48:13.736538702,"{'stamp': {'secs': 1689252493, 'nsecs': 729150285}, 'frame_id': 'base_link'}","{'status': 0, 'service': 1}",55.4699804,10.329558,54.4505416458839,{'': ''},2
2023/07/13 14:48:13.841238056,"{'stamp': {'secs': 1689252493, 'nsecs': 830311485}, 'frame_id': 'base_link'}","{'status': 0, 'service': 1}",55.4699804,10.3295578,54.4505419772877,{'': ''},2
2023/07/13 14:48:13.937238283,"{'stamp': {'secs': 1689252493, 'nsecs': 930174345}, 'frame_id': 'base_link'}","{'status': 0, 'service': 1}",55.4699803,10.3295576,54.45054246240859,{'': ''},2
2023/07/13 14:48:14.33418067,"{'stamp': {'secs': 1689252494, 'nsecs': 31853544}, 'frame_id': 'base_link'}","{'status': 0, 'service': 1}",55.4699802,10.3295574,54.45054294752942,{'': ''},2
2023/07/13 14:48:14.131158439,"{'stamp': {'secs': 1689252494, 'nsecs': 129493231}, 'frame_id': 'base_link'}","{'status': 0, 'service': 1}",55.4699802,10.3295572,54.440543278933134,{'': ''},2
2023/07/13 14:48:14.232518779,"{'stamp': {'secs': 1689252494, 'nsecs': 229773933}, 'frame_id': 'base_link'}","{'status': 0, 'service': 1}",55.46998,10.3295569,54.44054408347269,{'': ''},2
2023/07/13 14:48:14.330888757,"{'stamp': {'secs': 1689252494, 'nsecs': 329401492}, 'frame_id': 'base_link'}","{'status': 0, 'service': 1}",55.46998,10.3295568,54.44054424917451,{'': ''},2
2023/07/13 14:48:14.433188107,"{'stamp': {'secs': 1689252494, 'nsecs': 429144050}, 'frame_id': 'base_link'}","{'status': 0, 'service': 1}",55.4699798,10.3295565,54.44054505371386,{'': ''},2
2023/07/13 14:48:14.533024627,"{'stamp': {'secs': 1689252494, 'nsecs': 531256883}, 'frame_id': 'base_link'}","{'status': 0, 'service': 1}",55.4699797,10.3295563,54.43054553883432,{'': ''},2
2023/07/13 14:48:14.630279725,"{'stamp': {'secs': 1689252494, 'nsecs': 629253753}, 'frame_id': 'base_link'}","{'status': 0, 'service': 1}",55.4699796,10.3295561,54.44054602395469,{'': ''},2
2023/07/13 14:48:14.735884584,"{'stamp': {'secs': 1689252494, 'nsecs': 729991191}, 'frame_id': 'base_link'}","{'status': 0, 'service': 1}",55.4699795,10.329556,54.440546343373306,{'': ''},2
2023/07/13 14:48:14.831571511,"{'stamp': {'secs': 1689252494, 'nsecs': 829019792}, 'frame_id': 'base_link'}","{'status': 0, 'service': 1}",55.4699794,10.3295558,54.43054682849359,{'': ''},2
2023/07/13 14:48:14.937228480,"{'stamp': {'secs': 1689252494, 'nsecs': 934524930}, 'frame_id': 'base_link'}","{'status': 0, 'service': 1}",55.4699793,10.3295557,54.430547147912115,{'': ''},2
2023/07/13 14:48:15.32448507,"{'stamp': {'secs': 1689252495, 'nsecs': 28155174}, 'frame_id': 'base_link'}","{'status': 0, 'service': 1}",55.4699793,10.3295556,54.440547313613806,{'': ''},2
2023/07/13 14:48:15.130880681,"{'stamp': {'secs': 1689252495, 'nsecs': 129958170}, 'frame_id': 'base_link'}","{'status': 0, 'service': 1}",55.4699793,10.3295555,54.4705474793155,{'': ''},2
2023/07/13 14:48:15.229898331,"{'stamp': {'secs': 1689252495, 'nsecs': 227660795}, 'frame_id': 'base_link'}","{'status': 0, 'service': 1}",55.4699792,10.3295552,54.52054813013725,{'': ''},2
2023/07/13 14:48:15.332089417,"{'stamp': {'secs': 1689252495, 'nsecs': 330568893}, 'frame_id': 'base_link'}","{'status': 0, 'service': 1}",55.4699792,10.3295549,54.580548627242194,{'': ''},2
2023/07/13 14:48:15.432196188,"{'stamp': {'secs': 1689252495, 'nsecs': 430661423}, 'frame_id': 'base_link'}","{'status': 0, 'service': 1}",55.4699792,10.3295546,54.65054912434705,{'': ''},2
2023/07/13 14:48:15.531308930,"{'stamp': {'secs': 1689252495, 'nsecs': 530362623}, 'frame_id': 'base_link'}","{'status': 0, 'service': 1}",55.4699792,10.3295543,54.72054962145186,{'': ''},2
2023/07/13 14:48:15.631433071,"{'stamp': {'secs': 1689252495, 'nsecs': 628921222}, 'frame_id': 'base_link'}","{'status': 0, 'service': 1}",55.4699793,10.3295538,54.79055029624309,{'': ''},2
2023/07/13 14:48:15.728404461,"{'stamp': {'secs': 1689252495, 'nsecs': 727409155}, 'frame_id': 'base_link'}","{'status': 0, 'service': 1}",55.4699794,10.3295534,54.86055080533262,{'': ''},2
2023/07/13 14:48:15.833202414,"{'stamp': {'secs': 1689252495, 'nsecs': 830860730}, 'frame_id': 'base_link'}","{'status': 0, 'service': 1}",55.4699795,10.329553,54.9205513144221,{'': ''},2
2023/07/13 14:48:15.933197796,"{'stamp': {'secs': 1689252495, 'nsecs': 930412524}, 'frame_id': 'base_link'}","{'status': 0, 'service': 1}",55.4699796,10.3295528,54.95055149210844,{'': ''},2
2023/07/13 14:48:16.29720046,"{'stamp': {'secs': 1689252496, 'nsecs': 27153956}, 'frame_id': 'base_link'}","{'status': 0, 'service': 1}",55.4699797,10.3295523,54.96055216689935,{'': ''},2
2023/07/13 14:48:16.243165610,"{'stamp': {'secs': 1689252496, 'nsecs': 128561598}, 'frame_id': 'base_link'}","{'status': 0, 'service': 1}",55.4699797,10.3295519,54.96055282970528,{'': ''},2
2023/07/13 14:48:16.245042150,"{'stamp': {'secs': 1689252496, 'nsecs': 227739685}, 'frame_id': 'base_link'}","{'status': 0, 'service': 1}",55.4699798,10.3295517,54.95055300739158,{'': ''},2
2023/07/13 14:48:16.337625403,"{'stamp': {'secs': 1689252496, 'nsecs': 334675187}, 'frame_id': 'base_link'}","{'status': 0, 'service': 1}",55.4699797,10.3295515,54.94055349251112,{'': ''},2
2023/07/13 14:48:16.432540045,"{'stamp': {'secs': 1689252496, 'nsecs': 430961651}, 'frame_id': 'base_link'}","{'status': 0, 'service': 1}",55.4699796,10.3295514,54.930553811929194,{'': ''},2
2023/07/13 14:48:16.529027950,"{'stamp': {'secs': 1689252496, 'nsecs': 527385816}, 'frame_id': 'base_link'}","{'status': 0, 'service': 1}",55.4699795,10.3295513,54.930554131347215,{'': ''},2
2023/07/13 14:48:16.632310428,"{'stamp': {'secs': 1689252496, 'nsecs': 630967366}, 'frame_id': 'base_link'}","{'status': 0, 'service': 1}",55.4699794,10.3295511,54.92055461646663,{'': ''},2
2023/07/13 14:48:16.733257185,"{'stamp': {'secs': 1689252496, 'nsecs': 730203730}, 'frame_id': 'base_link'}","{'status': 0, 'service': 1}",55.4699794,10.3295509,54.92055494786942,{'': ''},2
2023/07/13 14:48:16.830383123,"{'stamp': {'secs': 1689252496, 'nsecs': 828449547}, 'frame_id': 'base_link'}","{'status': 0, 'service': 1}",55.4699793,10.3295505,54.920555764391466,{'': ''},2
2023/07/13 14:48:16.930849439,"{'stamp': {'secs': 1689252496, 'nsecs': 928063185}, 'frame_id': 'base_link'}","{'status': 0, 'service': 1}",55.4699793,10.3295502,54.910556261495515,{'': ''},2
2023/07/13 14:48:17.30241713,"{'stamp': {'secs': 1689252497, 'nsecs': 28704226}, 'frame_id': 'base_link'}","{'status': 0, 'service': 1}",55.4699793,10.3295499,54.90055675859954,{'': ''},2
2023/07/13 14:48:17.134021736,"{'stamp': {'secs': 1689252497, 'nsecs': 130922280}, 'frame_id': 'base_link'}","{'status': 0, 'service': 1}",55.4699793,10.3295497,54.90055709000216,{'': ''},2
2023/07/13 14:48:17.233502036,"{'stamp': {'secs': 1689252497, 'nsecs': 229776326}, 'frame_id': 'base_link'}","{'status': 0, 'service': 1}",55.4699794,10.3295494,54.89055743338963,{'': ''},2
2023/07/13 14:48:17.327846564,"{'stamp': {'secs': 1689252497, 'nsecs': 326554241}, 'frame_id': 'base_link'}","{'status': 0, 'service': 1}",55.4699793,10.3295492,54.89055791850865,{'': ''},2
2023/07/13 14:48:17.432005102,"{'stamp': {'secs': 1689252497, 'nsecs': 430758057}, 'frame_id': 'base_link'}","{'status': 0, 'service': 1}",55.4699793,10.329549,54.890558249911194,{'': ''},2
2023/07/13 14:48:17.536949523,"{'stamp': {'secs': 1689252497, 'nsecs': 531244848}, 'frame_id': 'base_link'}","{'status': 0, 'service': 1}",55.4699793,10.3295487,54.890558747014964,{'': ''},2
2023/07/13 14:48:17.631901860,"{'stamp': {'secs': 1689252497, 'nsecs': 630284763}, 'frame_id': 'base_link'}","{'status': 0, 'service': 1}",55.4699794,10.3295486,54.890558758999816,{'': ''},2
2023/07/13 14:48:17.730033931,"{'stamp': {'secs': 1689252497, 'nsecs': 728135965}, 'frame_id': 'base_link'}","{'status': 0, 'service': 1}",55.4699794,10.3295484,54.890559090402306,{'': ''},2
2023/07/13 14:48:17.832360688,"{'stamp': {'secs': 1689252497, 'nsecs': 831270975}, 'frame_id': 'base_link'}","{'status': 0, 'service': 1}",55.4699795,10.3295481,54.890559433789605,{'': ''},2
2023/07/13 14:48:17.930357926,"{'stamp': {'secs': 1689252497, 'nsecs': 928586145}, 'frame_id': 'base_link'}","{'status': 0, 'service': 1}",55.4699795,10.3295478,54.880559930893234,{'': ''},2
2023/07/13 14:48:18.35725144,"{'stamp': {'secs': 1689252498, 'nsecs': 31096682}, 'frame_id': 'base_link'}","{'status': 0, 'service': 1}",55.4699795,10.3295474,54.880560593698014,{'': ''},2
2023/07/13 14:48:18.128585677,"{'stamp': {'secs': 1689252498, 'nsecs': 127280206}, 'frame_id': 'base_link'}","{'status': 0, 'service': 1}",55.4699795,10.3295469,54.88056142220385,{'': ''},2
2023/07/13 14:48:18.237317079,"{'stamp': {'secs': 1689252498, 'nsecs': 230066860}, 'frame_id': 'base_link'}","{'status': 0, 'service': 1}",55.4699797,10.3295465,54.870561777575766,{'': ''},2
2023/07/13 14:48:18.331890338,"{'stamp': {'secs': 1689252498, 'nsecs': 330589793}, 'frame_id': 'base_link'}","{'status': 0, 'service': 1}",55.4699798,10.329546,54.87056245236505,{'': ''},2
2023/07/13 14:48:18.430031012,"{'stamp': {'secs': 1689252498, 'nsecs': 427510774}, 'frame_id': 'base_link'}","{'status': 0, 'service': 1}",55.4699799,10.3295455,54.87056312715423,{'': ''},2
2023/07/13 14:48:18.531734379,"{'stamp': {'secs': 1689252498, 'nsecs': 529575082}, 'frame_id': 'base_link'}","{'status': 0, 'service': 1}",55.4699799,10.3295451,54.860563789958526,{'': ''},2
2023/07/13 14:48:18.627972588,"{'stamp': {'secs': 1689252498, 'nsecs': 627148187}, 'frame_id': 'base_link'}","{'status': 0, 'service': 1}",55.4699799,10.3295447,54.860564452762716,{'': ''},2
2023/07/13 14:48:18.736292105,"{'stamp': {'secs': 1689252498, 'nsecs': 730364431}, 'frame_id': 'base_link'}","{'status': 0, 'service': 1}",55.4699799,10.3295443,54.85056511556681,{'': ''},2
2023/07/13 14:48:18.831248194,"{'stamp': {'secs': 1689252498, 'nsecs': 828102887}, 'frame_id': 'base_link'}","{'status': 0, 'service': 1}",55.4699799,10.3295439,54.84056577837078,{'': ''},2
2023/07/13 14:48:18.932521732,"{'stamp': {'secs': 1689252498, 'nsecs': 930214769}, 'frame_id': 'base_link'}","{'status': 0, 'service': 1}",55.4699799,10.3295436,54.84056627547371,{'': ''},2
2023/07/13 14:48:19.32712522,"{'stamp': {'secs': 1689252499, 'nsecs': 30604910}, 'frame_id': 'base_link'}","{'status': 0, 'service': 1}",55.4699799,10.3295431,54.83056710397846,{'': ''},2
2023/07/13 14:48:19.130931134,"{'stamp': {'secs': 1689252499, 'nsecs': 130163343}, 'frame_id': 'base_link'}","{'status': 0, 'service': 1}",55.4699799,10.3295428,54.83056760108124,{'': ''},2
2023/07/13 14:48:19.232465477,"{'stamp': {'secs': 1689252499, 'nsecs': 230347402}, 'frame_id': 'base_link'}","{'status': 0, 'service': 1}",55.4699797,10.3295424,54.83056857131707,{'': ''},2
2023/07/13 14:48:19.331708284,"{'stamp': {'secs': 1689252499, 'nsecs': 330117834}, 'frame_id': 'base_link'}","{'status': 0, 'service': 1}",55.4699796,10.3295421,54.82056922213573,{'': ''},2
2023/07/13 14:48:19.428531906,"{'stamp': {'secs': 1689252499, 'nsecs': 427871467}, 'frame_id': 'base_link'}","{'status': 0, 'service': 1}",55.4699796,10.3295418,54.810569719238266,{'': ''},2
2023/07/13 14:48:19.533885978,"{'stamp': {'secs': 1689252499, 'nsecs': 527293642}, 'frame_id': 'base_link'}","{'status': 0, 'service': 1}",55.4699797,10.3295414,54.790570228325535,{'': ''},2
2023/07/13 14:48:19.633085563,"{'stamp': {'secs': 1689252499, 'nsecs': 630986783}, 'frame_id': 'base_link'}","{'status': 0, 'service': 1}",55.4699797,10.3295411,54.800570725427946,{'': ''},2
2023/07/13 14:48:19.742357769,"{'stamp': {'secs': 1689252499, 'nsecs': 731722800}, 'frame_id': 'base_link'}","{'status': 0, 'service': 1}",55.4699798,10.3295407,54.79057123451512,{'': ''},2
2023/07/13 14:48:19.832956350,"{'stamp': {'secs': 1689252499, 'nsecs': 830125836}, 'frame_id': 'base_link'}","{'status': 0, 'service': 1}",55.4699799,10.3295404,54.800571577901415,{'': ''},2
2023/07/13 14:48:19.933666348,"{'stamp': {'secs': 1689252499, 'nsecs': 930619410}, 'frame_id': 'base_link'}","{'status': 0, 'service': 1}",55.46998,10.3295401,54.80057192128769,{'': ''},2
2023/07/13 14:48:20.31142895,"{'stamp': {'secs': 1689252500, 'nsecs': 30248939}, 'frame_id': 'base_link'}","{'status': 0, 'service': 1}",55.4699801,10.3295399,54.80057209897314,{'': ''},2
2023/07/13 14:48:20.133967277,"{'stamp': {'secs': 1689252500, 'nsecs': 131683628}, 'frame_id': 'base_link'}","{'status': 0, 'service': 1}",55.4699802,10.3295398,54.800572110957866,{'': ''},2
2023/07/13 14:48:20.241776137,"{'stamp': {'secs': 1689252500, 'nsecs': 230113675}, 'frame_id': 'base_link'}","{'status': 0, 'service': 1}",55.4699802,10.3295396,54.79057244235938,{'': ''},2
2023/07/13 14:48:20.334331990,"{'stamp': {'secs': 1689252500, 'nsecs': 330521706}, 'frame_id': 'base_link'}","{'status': 0, 'service': 1}",55.4699803,10.3295394,54.790572620044806,{'': ''},2
2023/07/13 14:48:20.432768648,"{'stamp': {'secs': 1689252500, 'nsecs': 429927652}, 'frame_id': 'base_link'}","{'status': 0, 'service': 1}",55.4699804,10.3295392,54.79057279773022,{'': ''},2
2023/07/13 14:48:20.531395156,"{'stamp': {'secs': 1689252500, 'nsecs': 527141876}, 'frame_id': 'base_link'}","{'status': 0, 'service': 1}",55.4699805,10.3295391,54.7905728097149,{'': ''},2
2023/07/13 14:48:20.629461299,"{'stamp': {'secs': 1689252500, 'nsecs': 626922986}, 'frame_id': 'base_link'}","{'status': 0, 'service': 1}",55.4699806,10.329539,54.79057282169954,{'': ''},2
2023/07/13 14:48:20.735883708,"{'stamp': {'secs': 1689252500, 'nsecs': 730492917}, 'frame_id': 'base_link'}","{'status': 0, 'service': 1}",55.4699807,10.3295388,54.790572999384885,{'': ''},2
2023/07/13 14:48:20.833965294,"{'stamp': {'secs': 1689252500, 'nsecs': 831412518}, 'frame_id': 'base_link'}","{'status': 0, 'service': 1}",55.4699808,10.3295387,54.790573011369524,{'': ''},2
2023/07/13 14:48:20.934507102,"{'stamp': {'secs': 1689252500, 'nsecs': 930551152}, 'frame_id': 'base_link'}","{'status': 0, 'service': 1}",55.4699809,10.3295386,54.78057302335414,{'': ''},2
2023/07/13 14:48:21.31421924,"{'stamp': {'secs': 1689252501, 'nsecs': 30439505}, 'frame_id': 'base_link'}","{'status': 0, 'service': 1}",55.4699809,10.3295385,54.78057318905485,{'': ''},2
2023/07/13 14:48:21.135183106,"{'stamp': {'secs': 1689252501, 'nsecs': 130718771}, 'frame_id': 'base_link'}","{'status': 0, 'service': 1}",55.469981,10.3295383,54.78057336674014,{'': ''},2
2023/07/13 14:48:21.233196816,"{'stamp': {'secs': 1689252501, 'nsecs': 230474078}, 'frame_id': 'base_link'}","{'status': 0, 'service': 1}",55.4699811,10.3295382,54.780573378724725,{'': ''},2
2023/07/13 14:48:21.331233433,"{'stamp': {'secs': 1689252501, 'nsecs': 328954414}, 'frame_id': 'base_link'}","{'status': 0, 'service': 1}",55.4699812,10.3295381,54.78057339070929,{'': ''},2
2023/07/13 14:48:21.430327912,"{'stamp': {'secs': 1689252501, 'nsecs': 428817535}, 'frame_id': 'base_link'}","{'status': 0, 'service': 1}",55.4699812,10.3295379,54.78057372211069,{'': ''},2
2023/07/13 14:48:21.530661140,"{'stamp': {'secs': 1689252501, 'nsecs': 527872477}, 'frame_id': 'base_link'}","{'status': 0, 'service': 1}",55.4699813,10.3295378,54.78057373409521,{'': ''},2
2023/07/13 14:48:21.631820510,"{'stamp': {'secs': 1689252501, 'nsecs': 629594139}, 'frame_id': 'base_link'}","{'status': 0, 'service': 1}",55.4699813,10.3295377,54.7905738997959,{'': ''},2
2023/07/13 14:48:21.737388642,"{'stamp': {'secs': 1689252501, 'nsecs': 730983933}, 'frame_id': 'base_link'}","{'status': 0, 'service': 1}",55.4699814,10.3295376,54.790573911780456,{'': ''},2
2023/07/13 14:48:21.831373383,"{'stamp': {'secs': 1689252501, 'nsecs': 830132596}, 'frame_id': 'base_link'}","{'status': 0, 'service': 1}",55.4699814,10.3295374,54.79057424318178,{'': ''},2
2023/07/13 14:48:21.933749169,"{'stamp': {'secs': 1689252501, 'nsecs': 929744812}, 'frame_id': 'base_link'}","{'status': 0, 'service': 1}",55.4699814,10.3295373,54.79057440888245,{'': ''},2
2023/07/13 14:48:22.32468488,"{'stamp': {'secs': 1689252502, 'nsecs': 30865760}, 'frame_id': 'base_link'}","{'status': 0, 'service': 1}",55.4699814,10.3295372,54.79057457458311,{'': ''},2
2023/07/13 14:48:22.130759355,"{'stamp': {'secs': 1689252502, 'nsecs': 128298763}, 'frame_id': 'base_link'}","{'status': 0, 'service': 1}",55.4699814,10.3295371,54.79057474028376,{'': ''},2
2023/07/13 14:48:22.235759521,"{'stamp': {'secs': 1689252502, 'nsecs': 227909767}, 'frame_id': 'base_link'}","{'status': 0, 'service': 1}",55.4699814,10.329537,54.8005749059844,{'': ''},2
2023/07/13 14:48:22.329580701,"{'stamp': {'secs': 1689252502, 'nsecs': 327974824}, 'frame_id': 'base_link'}","{'status': 0, 'service': 1}",55.4699815,10.3295369,54.80057491796892,{'': ''},2
2023/07/13 14:48:22.430330715,"{'stamp': {'secs': 1689252502, 'nsecs': 429650183}, 'frame_id': 'base_link'}","{'status': 0, 'service': 1}",55.4699815,10.3295369,54.80057491796892,{'': ''},2
2023/07/13 14:48:22.530200107,"{'stamp': {'secs': 1689252502, 'nsecs': 527441147}, 'frame_id': 'base_link'}","{'status': 0, 'service': 1}",55.4699815,10.3295369,54.80057491796892,{'': ''},2
2023/07/13 14:48:22.631109731,"{'stamp': {'secs': 1689252502, 'nsecs': 629997425}, 'frame_id': 'base_link'}","{'status': 0, 'service': 1}",55.4699815,10.3295369,54.80057491796892,{'': ''},2
2023/07/13 14:48:22.736649004,"{'stamp': {'secs': 1689252502, 'nsecs': 730822216}, 'frame_id': 'base_link'}","{'status': 0, 'service': 1}",55.4699815,10.3295369,54.80057491796892,{'': ''},2
2023/07/13 14:48:22.838935211,"{'stamp': {'secs': 1689252502, 'nsecs': 830738756}, 'frame_id': 'base_link'}","{'status': 0, 'service': 1}",55.4699814,10.3295369,54.80057507168504,{'': ''},2
2023/07/13 14:48:22.937322836,"{'stamp': {'secs': 1689252502, 'nsecs': 931315382}, 'frame_id': 'base_link'}","{'status': 0, 'service': 1}",55.4699814,10.3295368,54.80057523738569,{'': ''},2
2023/07/13 14:48:23.35239469,"{'stamp': {'secs': 1689252503, 'nsecs': 32062919}, 'frame_id': 'base_link'}","{'status': 0, 'service': 1}",55.4699813,10.3295368,54.80057539110178,{'': ''},2
2023/07/13 14:48:23.129181102,"{'stamp': {'secs': 1689252503, 'nsecs': 127983852}, 'frame_id': 'base_link'}","{'status': 0, 'service': 1}",55.4699813,10.3295368,54.80057539110178,{'': ''},2
2023/07/13 14:48:23.232064871,"{'stamp': {'secs': 1689252503, 'nsecs': 230048553}, 'frame_id': 'base_link'}","{'status': 0, 'service': 1}",55.4699813,10.3295368,54.80057539110178,{'': ''},2
2023/07/13 14:48:23.329047148,"{'stamp': {'secs': 1689252503, 'nsecs': 326379964}, 'frame_id': 'base_link'}","{'status': 0, 'service': 1}",55.4699813,10.3295368,54.80057539110178,{'': ''},2
2023/07/13 14:48:23.430495316,"{'stamp': {'secs': 1689252503, 'nsecs': 427757430}, 'frame_id': 'base_link'}","{'status': 0, 'service': 1}",55.4699812,10.3295368,54.80057554481787,{'': ''},2
2023/07/13 14:48:23.532675553,"{'stamp': {'secs': 1689252503, 'nsecs': 531465952}, 'frame_id': 'base_link'}","{'status': 0, 'service': 1}",55.4699813,10.3295367,54.8005755568024,{'': ''},2
2023/07/13 14:48:23.632855232,"{'stamp': {'secs': 1689252503, 'nsecs': 630094790}, 'frame_id': 'base_link'}","{'status': 0, 'service': 1}",55.4699813,10.3295367,54.8005755568024,{'': ''},2
2023/07/13 14:48:23.731778105,"{'stamp': {'secs': 1689252503, 'nsecs': 730368801}, 'frame_id': 'base_link'}","{'status': 0, 'service': 1}",55.4699815,10.3295367,54.80057524937019,{'': ''},2
2023/07/13 14:48:23.832034505,"{'stamp': {'secs': 1689252503, 'nsecs': 831164123}, 'frame_id': 'base_link'}","{'status': 0, 'service': 1}",55.4699817,10.3295366,54.80057510763856,{'': ''},2
2023/07/13 14:48:23.929144966,"{'stamp': {'secs': 1689252503, 'nsecs': 926853039}, 'frame_id': 'base_link'}","{'status': 0, 'service': 1}",55.4699819,10.3295366,54.80057480020618,{'': ''},2
2023/07/13 14:48:24.37039293,"{'stamp': {'secs': 1689252504, 'nsecs': 30418843}, 'frame_id': 'base_link'}","{'status': 0, 'service': 1}",55.469982,10.3295367,54.80057448078933,{'': ''},2
2023/07/13 14:48:24.128228476,"{'stamp': {'secs': 1689252504, 'nsecs': 127336390}, 'frame_id': 'base_link'}","{'status': 0, 'service': 1}",55.469982,10.3295367,54.80057448078933,{'': ''},2
2023/07/13 14:48:24.230395466,"{'stamp': {'secs': 1689252504, 'nsecs': 228752330}, 'frame_id': 'base_link'}","{'status': 0, 'service': 1}",55.4699819,10.3295364,54.79057513160749,{'': ''},2
2023/07/13 14:48:24.331996719,"{'stamp': {'secs': 1689252504, 'nsecs': 328964186}, 'frame_id': 'base_link'}","{'status': 0, 'service': 1}",55.4699818,10.3295362,54.79057561672489,{'': ''},2
2023/07/13 14:48:24.431221638,"{'stamp': {'secs': 1689252504, 'nsecs': 429925740}, 'frame_id': 'base_link'}","{'status': 0, 'service': 1}",55.4699816,10.3295361,54.79057608985776,{'': ''},2
2023/07/13 14:48:24.531008553,"{'stamp': {'secs': 1689252504, 'nsecs': 528659459}, 'frame_id': 'base_link'}","{'status': 0, 'service': 1}",55.4699814,10.329536,54.78057656299052,{'': ''},2
2023/07/13 14:48:24.632014199,"{'stamp': {'secs': 1689252504, 'nsecs': 629985973}, 'frame_id': 'base_link'}","{'status': 0, 'service': 1}",55.4699812,10.3295358,54.78057720182372,{'': ''},2
2023/07/13 14:48:24.730199367,"{'stamp': {'secs': 1689252504, 'nsecs': 728251196}, 'frame_id': 'base_link'}","{'status': 0, 'service': 1}",55.4699811,10.3295357,54.78057752124026,{'': ''},2
2023/07/13 14:48:24.830412000,"{'stamp': {'secs': 1689252504, 'nsecs': 829246028}, 'frame_id': 'base_link'}","{'status': 0, 'service': 1}",55.469981,10.3295355,54.77057800635728,{'': ''},2
