time,header,pose
2023/07/13 14:47:54.59870337,"{'stamp': {'secs': 1689252474, 'nsecs': 55516609}, 'frame_id': 'map'}","{'position': {'x': -2.119123935699463, 'y': -0.8287588953971863, 'z': -1.5192835330963135}, 'orientation': {'x': 0.013376310463965091, 'y': 0.018869539100871777, 'z': -0.9971182373933467, 'w': -0.0722511970148414}}"
2023/07/13 14:47:54.148801755,"{'stamp': {'secs': 1689252474, 'nsecs': 144090086}, 'frame_id': 'map'}","{'position': {'x': -2.115237236022949, 'y': -0.8292068839073181, 'z': -1.5193642377853394}, 'orientation': {'x': 0.013352489440972087, 'y': 0.018872804638471467, 'z': -0.9971177669340107, 'w': -0.07226124227647135}}"
2023/07/13 14:47:54.256359518,"{'stamp': {'secs': 1689252474, 'nsecs': 254713389}, 'frame_id': 'map'}","{'position': {'x': -2.1119792461395264, 'y': -0.8299437761306763, 'z': -1.5212078094482422}, 'orientation': {'x': 0.013341865088363073, 'y': 0.018872272769860535, 'z': -0.9971173162376723, 'w': -0.07226956216448166}}"
2023/07/13 14:47:54.352527910,"{'stamp': {'secs': 1689252474, 'nsecs': 344544852}, 'frame_id': 'map'}","{'position': {'x': -2.1091458797454834, 'y': -0.830803632736206, 'z': -1.5229544639587402}, 'orientation': {'x': 0.013338691037699232, 'y': 0.01886703927661632, 'z': -0.9971188355199225, 'w': -0.07225055018288157}}"
2023/07/13 14:47:54.464409013,"{'stamp': {'secs': 1689252474, 'nsecs': 452058949}, 'frame_id': 'map'}","{'position': {'x': -2.105149745941162, 'y': -0.8315472602844238, 'z': -1.5248236656188965}, 'orientation': {'x': 0.013333007185717054, 'y': 0.01886546205770782, 'z': -0.9971185951677675, 'w': -0.07225532804847606}}"
2023/07/13 14:47:54.553646039,"{'stamp': {'secs': 1689252474, 'nsecs': 544297219}, 'frame_id': 'map'}","{'position': {'x': -2.102059841156006, 'y': -0.8323473930358887, 'z': -1.525341510772705}, 'orientation': {'x': 0.013317115656408552, 'y': 0.01885396258355141, 'z': -0.99711945565906, 'w': -0.07224938526846975}}"
2023/07/13 14:47:54.678795343,"{'stamp': {'secs': 1689252474, 'nsecs': 650487275}, 'frame_id': 'map'}","{'position': {'x': -2.0954132080078125, 'y': -0.8314507603645325, 'z': -1.52488374710083}, 'orientation': {'x': 0.013278686273910904, 'y': 0.01883255600142945, 'z': -0.9971212206344588, 'w': -0.07223768189621715}}"
2023/07/13 14:47:54.758995416,"{'stamp': {'secs': 1689252474, 'nsecs': 754346802}, 'frame_id': 'map'}","{'position': {'x': -2.091125965118408, 'y': -0.8312137126922607, 'z': -1.5243282318115234}, 'orientation': {'x': 0.013257957592236412, 'y': 0.018829761363218893, 'z': -0.9971208297957612, 'w': -0.07224761196675694}}"
2023/07/13 14:47:54.862143432,"{'stamp': {'secs': 1689252474, 'nsecs': 850534045}, 'frame_id': 'map'}","{'position': {'x': -2.088261842727661, 'y': -0.8304211497306824, 'z': -1.5235776901245117}, 'orientation': {'x': 0.01325594381143373, 'y': 0.018812663226987582, 'z': -0.9971218852200012, 'w': -0.07223786867901555}}"
2023/07/13 14:47:54.945559561,"{'stamp': {'secs': 1689252474, 'nsecs': 942645335}, 'frame_id': 'map'}","{'position': {'x': -2.0860135555267334, 'y': -0.8299920558929443, 'z': -1.5232508182525635}, 'orientation': {'x': 0.013283668436309954, 'y': 0.018803220743135236, 'z': -0.9971222892461025, 'w': -0.07222965686732041}}"
2023/07/13 14:47:55.57320655,"{'stamp': {'secs': 1689252475, 'nsecs': 51151446}, 'frame_id': 'map'}","{'position': {'x': -2.0838918685913086, 'y': -0.829689085483551, 'z': -1.520751714706421}, 'orientation': {'x': 0.013296818437446121, 'y': 0.01881925002161821, 'z': -0.9971205407214113, 'w': -0.07224719869659518}}"
2023/07/13 14:47:55.150760961,"{'stamp': {'secs': 1689252475, 'nsecs': 150078506}, 'frame_id': 'map'}","{'position': {'x': -2.081961154937744, 'y': -0.8298656940460205, 'z': -1.5191667079925537}, 'orientation': {'x': 0.013307735956396014, 'y': 0.018830135279031872, 'z': -0.997121012642004, 'w': -0.07223583817519225}}"
2023/07/13 14:47:55.244258156,"{'stamp': {'secs': 1689252475, 'nsecs': 238537275}, 'frame_id': 'map'}","{'position': {'x': -2.0785634517669678, 'y': -0.8306204080581665, 'z': -1.5179210901260376}, 'orientation': {'x': 0.01330031076545193, 'y': 0.01884023542255545, 'z': -0.9971219084333791, 'w': -0.07222220562223697}}"
2023/07/13 14:47:55.354309832,"{'stamp': {'secs': 1689252475, 'nsecs': 348857893}, 'frame_id': 'map'}","{'position': {'x': -2.0753774642944336, 'y': -0.8316301107406616, 'z': -1.5177428722381592}, 'orientation': {'x': 0.013268557816379683, 'y': 0.018851887417371684, 'z': -0.9971203577327599, 'w': -0.07224641104697893}}"
2023/07/13 14:47:55.447063350,"{'stamp': {'secs': 1689252475, 'nsecs': 443235374}, 'frame_id': 'map'}","{'position': {'x': -2.074974775314331, 'y': -0.8323221802711487, 'z': -1.5163753032684326}, 'orientation': {'x': 0.01330242205246767, 'y': 0.018868740059540232, 'z': -0.9971199133179331, 'w': -0.07224191775514494}}"
2023/07/13 14:47:55.559333260,"{'stamp': {'secs': 1689252475, 'nsecs': 558719971}, 'frame_id': 'map'}","{'position': {'x': -2.074720859527588, 'y': -0.8332528471946716, 'z': -1.5156246423721313}, 'orientation': {'x': 0.013322588647559254, 'y': 0.01887346620582956, 'z': -0.9971185390930064, 'w': -0.07225593333515407}}"
2023/07/13 14:47:55.643338802,"{'stamp': {'secs': 1689252475, 'nsecs': 642589162}, 'frame_id': 'map'}","{'position': {'x': -2.0747017860412598, 'y': -0.8342360258102417, 'z': -1.5139800310134888}, 'orientation': {'x': 0.01335298762283532, 'y': 0.01889352780057766, 'z': -0.9971196691877376, 'w': -0.07222947907696564}}"
2023/07/13 14:47:56.39616225,"{'stamp': {'secs': 1689252475, 'nsecs': 740451252}, 'frame_id': 'map'}","{'position': {'x': -2.073899269104004, 'y': -0.8351830244064331, 'z': -1.514187216758728}, 'orientation': {'x': 0.013384349808788444, 'y': 0.01891067824003842, 'z': -0.9971190820235234, 'w': -0.07222729188654164}}"
2023/07/13 14:47:56.45053628,"{'stamp': {'secs': 1689252475, 'nsecs': 842142114}, 'frame_id': 'map'}","{'position': {'x': -2.06846022605896, 'y': -0.8347481489181519, 'z': -1.517004132270813}, 'orientation': {'x': 0.01332886989537325, 'y': 0.018891789305445352, 'z': -0.9971190941962604, 'w': -0.07224232494445204}}"
2023/07/13 14:47:56.48330351,"{'stamp': {'secs': 1689252475, 'nsecs': 940759289}, 'frame_id': 'map'}","{'position': {'x': -2.0636205673217773, 'y': -0.8345295786857605, 'z': -1.518455982208252}, 'orientation': {'x': 0.01327568804051647, 'y': 0.018893689785746022, 'z': -0.9971181742874883, 'w': -0.07226431414548135}}"
2023/07/13 14:47:56.55460958,"{'stamp': {'secs': 1689252476, 'nsecs': 50337199}, 'frame_id': 'map'}","{'position': {'x': -2.0580832958221436, 'y': -0.8332425951957703, 'z': -1.520117998123169}, 'orientation': {'x': 0.013239480484573414, 'y': 0.018866542766986318, 'z': -0.9971181767009688, 'w': -0.07227801472823947}}"
2023/07/13 14:47:56.146974984,"{'stamp': {'secs': 1689252476, 'nsecs': 146195437}, 'frame_id': 'map'}","{'position': {'x': -2.0537941455841064, 'y': -0.8326178789138794, 'z': -1.520869493484497}, 'orientation': {'x': 0.013216540627973465, 'y': 0.0188628160773053, 'z': -0.9971159997497836, 'w': -0.07231320948797898}}"
2023/07/13 14:47:56.255531858,"{'stamp': {'secs': 1689252476, 'nsecs': 253332160}, 'frame_id': 'map'}","{'position': {'x': -2.0482163429260254, 'y': -0.8304952383041382, 'z': -1.5231621265411377}, 'orientation': {'x': 0.013206693842511103, 'y': 0.01884564017150267, 'z': -0.9971147563464631, 'w': -0.07233662806911934}}"
2023/07/13 14:47:56.357369196,"{'stamp': {'secs': 1689252476, 'nsecs': 351002748}, 'frame_id': 'map'}","{'position': {'x': -2.0442588329315186, 'y': -0.8295020461082458, 'z': -1.5256707668304443}, 'orientation': {'x': 0.013212658098145792, 'y': 0.018849577962324414, 'z': -0.9971119927721639, 'w': -0.07237259803646734}}"
2023/07/13 14:47:56.455784572,"{'stamp': {'secs': 1689252476, 'nsecs': 450534593}, 'frame_id': 'map'}","{'position': {'x': -2.0396533012390137, 'y': -0.8273187279701233, 'z': -1.5284180641174316}, 'orientation': {'x': 0.01320913309422648, 'y': 0.01884344511678943, 'z': -0.9971128005084152, 'w': -0.07236370942188325}}"
2023/07/13 14:47:56.555148659,"{'stamp': {'secs': 1689252476, 'nsecs': 550009568}, 'frame_id': 'map'}","{'position': {'x': -2.0360395908355713, 'y': -0.8252702951431274, 'z': -1.5301456451416016}, 'orientation': {'x': 0.01323395578847593, 'y': 0.018838819599474938, 'z': -0.9971114846368931, 'w': -0.07237850851943428}}"
2023/07/13 14:47:56.642451954,"{'stamp': {'secs': 1689252476, 'nsecs': 635585233}, 'frame_id': 'map'}","{'position': {'x': -2.0345523357391357, 'y': -0.8232625722885132, 'z': -1.5289881229400635}, 'orientation': {'x': 0.013276247495256202, 'y': 0.018823985859243924, 'z': -0.9971126537721666, 'w': -0.0723585136403676}}"
2023/07/13 14:47:56.745088116,"{'stamp': {'secs': 1689252476, 'nsecs': 738792834}, 'frame_id': 'map'}","{'position': {'x': -2.032956600189209, 'y': -0.8216298222541809, 'z': -1.527785301208496}, 'orientation': {'x': 0.013310358661398616, 'y': 0.018820169060895398, 'z': -0.9971113717894184, 'w': -0.0723709046305766}}"
2023/07/13 14:47:56.850202770,"{'stamp': {'secs': 1689252476, 'nsecs': 849713608}, 'frame_id': 'map'}","{'position': {'x': -2.0293967723846436, 'y': -0.8209301233291626, 'z': -1.5286693572998047}, 'orientation': {'x': 0.013298964901452348, 'y': 0.018849985937869712, 'z': -0.9971097859589044, 'w': -0.0723870866085915}}"
2023/07/13 14:47:56.948969678,"{'stamp': {'secs': 1689252476, 'nsecs': 947842265}, 'frame_id': 'map'}","{'position': {'x': -2.0260815620422363, 'y': -0.8205782175064087, 'z': -1.5291705131530762}, 'orientation': {'x': 0.013278120244984714, 'y': 0.01885431537807066, 'z': -0.9971104191418315, 'w': -0.07238106349857648}}"
2023/07/13 14:47:57.35123694,"{'stamp': {'secs': 1689252477, 'nsecs': 34581607}, 'frame_id': 'map'}","{'position': {'x': -2.02335524559021, 'y': -0.8204392790794373, 'z': -1.5285518169403076}, 'orientation': {'x': 0.013285414708839068, 'y': 0.01885392567517369, 'z': -0.9971085319691868, 'w': -0.07240581963421344}}"
2023/07/13 14:47:57.151427999,"{'stamp': {'secs': 1689252477, 'nsecs': 150874320}, 'frame_id': 'map'}","{'position': {'x': -2.020721673965454, 'y': -0.8200899958610535, 'z': -1.5282557010650635}, 'orientation': {'x': 0.01330931059256977, 'y': 0.018873597949486717, 'z': -0.9971071311525254, 'w': -0.07241559608794318}}"
2023/07/13 14:47:57.251676184,"{'stamp': {'secs': 1689252477, 'nsecs': 246935921}, 'frame_id': 'map'}","{'position': {'x': -2.01928448677063, 'y': -0.8172037601470947, 'z': -1.5268580913543701}, 'orientation': {'x': 0.013349919931106744, 'y': 0.018848444438789698, 'z': -0.9971071405057079, 'w': -0.07241454365389144}}"
2023/07/13 14:47:57.350044073,"{'stamp': {'secs': 1689252477, 'nsecs': 348279426}, 'frame_id': 'map'}","{'position': {'x': -2.0177319049835205, 'y': -0.8141592144966125, 'z': -1.5259819030761719}, 'orientation': {'x': 0.013388747642007311, 'y': 0.018817005796416167, 'z': -0.9971072256782054, 'w': -0.07241437861190758}}"
2023/07/13 14:47:57.457575567,"{'stamp': {'secs': 1689252477, 'nsecs': 447081589}, 'frame_id': 'map'}","{'position': {'x': -2.015162706375122, 'y': -0.8103601336479187, 'z': -1.5253353118896484}, 'orientation': {'x': 0.013396980043548907, 'y': 0.018791048813086415, 'z': -0.9971085188944171, 'w': -0.07240178836464412}}"
2023/07/13 14:47:57.551396710,"{'stamp': {'secs': 1689252477, 'nsecs': 549884245}, 'frame_id': 'map'}","{'position': {'x': -2.0129830837249756, 'y': -0.8073735237121582, 'z': -1.5252962112426758}, 'orientation': {'x': 0.013395625472415915, 'y': 0.018804960574272903, 'z': -0.9971075637960874, 'w': -0.07241157985180402}}"
2023/07/13 14:47:57.660876701,"{'stamp': {'secs': 1689252477, 'nsecs': 656759042}, 'frame_id': 'map'}","{'position': {'x': -2.011780261993408, 'y': -0.8047395944595337, 'z': -1.5267236232757568}, 'orientation': {'x': 0.013412747763728984, 'y': 0.01881564191623282, 'z': -0.9971087306056976, 'w': -0.07238956531573626}}"
2023/07/13 14:47:57.754915046,"{'stamp': {'secs': 1689252477, 'nsecs': 750944330}, 'frame_id': 'map'}","{'position': {'x': -2.0105977058410645, 'y': -0.8026424050331116, 'z': -1.5282554626464844}, 'orientation': {'x': 0.013441224035916613, 'y': 0.018839183469574656, 'z': -0.9971066121143842, 'w': -0.07240733899537183}}"
2023/07/13 14:47:57.854249147,"{'stamp': {'secs': 1689252477, 'nsecs': 852286650}, 'frame_id': 'map'}","{'position': {'x': -2.0091910362243652, 'y': -0.8002204895019531, 'z': -1.5291879177093506}, 'orientation': {'x': 0.01347222465271845, 'y': 0.018844102363907073, 'z': -0.9971063563958447, 'w': -0.07240381898773157}}"
2023/07/13 14:47:57.958909987,"{'stamp': {'secs': 1689252477, 'nsecs': 946678639}, 'frame_id': 'map'}","{'position': {'x': -2.0078840255737305, 'y': -0.7985755205154419, 'z': -1.5311052799224854}, 'orientation': {'x': 0.01348656303304265, 'y': 0.018850112784928572, 'z': -0.9971052995418652, 'w': -0.07241413875120323}}"
2023/07/13 14:47:58.56571040,"{'stamp': {'secs': 1689252478, 'nsecs': 51360800}, 'frame_id': 'map'}","{'position': {'x': -2.0054426193237305, 'y': -0.796553373336792, 'z': -1.5342857837677002}, 'orientation': {'x': 0.013484109179468023, 'y': 0.018868108767260233, 'z': -0.9971050300490141, 'w': -0.07241361972818211}}"
2023/07/13 14:47:58.147205953,"{'stamp': {'secs': 1689252478, 'nsecs': 144302132}, 'frame_id': 'map'}","{'position': {'x': -2.0035860538482666, 'y': -0.7952046990394592, 'z': -1.5346941947937012}, 'orientation': {'x': 0.013476635694419535, 'y': 0.018878089492812736, 'z': -0.9971051506754138, 'w': -0.07241074867739877}}"
2023/07/13 14:47:58.251292591,"{'stamp': {'secs': 1689252478, 'nsecs': 243005477}, 'frame_id': 'map'}","{'position': {'x': -2.000509023666382, 'y': -0.7921783328056335, 'z': -1.5346837043762207}, 'orientation': {'x': 0.013488286466380393, 'y': 0.01887272952321042, 'z': -0.9971045210417278, 'w': -0.07241864626386924}}"
2023/07/13 14:47:58.348079697,"{'stamp': {'secs': 1689252478, 'nsecs': 346643638}, 'frame_id': 'map'}","{'position': {'x': -1.9981293678283691, 'y': -0.79001784324646, 'z': -1.5344336032867432}, 'orientation': {'x': 0.013498399712087182, 'y': 0.018863741275994435, 'z': -0.9971034352942701, 'w': -0.07243405134776154}}"
2023/07/13 14:47:58.439960837,"{'stamp': {'secs': 1689252478, 'nsecs': 437389235}, 'frame_id': 'map'}","{'position': {'x': -1.9948848485946655, 'y': -0.7874109148979187, 'z': -1.5340116024017334}, 'orientation': {'x': 0.013501018000714404, 'y': 0.01886445637691173, 'z': -0.9971025488713097, 'w': -0.0724455784219129}}"
2023/07/13 14:47:58.548443020,"{'stamp': {'secs': 1689252478, 'nsecs': 544040938}, 'frame_id': 'map'}","{'position': {'x': -1.9918148517608643, 'y': -0.7851911187171936, 'z': -1.532965898513794}, 'orientation': {'x': 0.013508062892470493, 'y': 0.018875599992681014, 'z': -0.9971038395503997, 'w': -0.07242359502026846}}"
2023/07/13 14:47:58.642635394,"{'stamp': {'secs': 1689252478, 'nsecs': 642026142}, 'frame_id': 'map'}","{'position': {'x': -1.9881590604782104, 'y': -0.7837309837341309, 'z': -1.5315403938293457}, 'orientation': {'x': 0.013507133609305857, 'y': 0.018883514205469916, 'z': -0.9971025849599202, 'w': -0.072438976381211}}"
2023/07/13 14:47:58.745285529,"{'stamp': {'secs': 1689252478, 'nsecs': 742259914}, 'frame_id': 'map'}","{'position': {'x': -1.9850988388061523, 'y': -0.7826669216156006, 'z': -1.5291013717651367}, 'orientation': {'x': 0.013518126617412361, 'y': 0.018896283864974165, 'z': -0.9971015961677492, 'w': -0.07244720580241243}}"
2023/07/13 14:47:58.854970663,"{'stamp': {'secs': 1689252478, 'nsecs': 852248322}, 'frame_id': 'map'}","{'position': {'x': -1.9831587076187134, 'y': -0.7819179892539978, 'z': -1.525627613067627}, 'orientation': {'x': 0.013562229040918415, 'y': 0.018917162530769558, 'z': -0.9971002439510749, 'w': -0.07245212500633375}}"
2023/07/13 14:47:58.951680232,"{'stamp': {'secs': 1689252478, 'nsecs': 951113961}, 'frame_id': 'map'}","{'position': {'x': -1.9807459115982056, 'y': -0.7813073992729187, 'z': -1.5252070426940918}, 'orientation': {'x': 0.013596146742629349, 'y': 0.018933797535333217, 'z': -0.9970982295334647, 'w': -0.07246914354312328}}"
2023/07/13 14:47:59.49260021,"{'stamp': {'secs': 1689252479, 'nsecs': 46663141}, 'frame_id': 'map'}","{'position': {'x': -1.977005958557129, 'y': -0.7806448936462402, 'z': -1.5251874923706055}, 'orientation': {'x': 0.013594733111386826, 'y': 0.018951454723502598, 'z': -0.9970969457568482, 'w': -0.07248245551758137}}"
2023/07/13 14:47:59.147893880,"{'stamp': {'secs': 1689252479, 'nsecs': 143686739}, 'frame_id': 'map'}","{'position': {'x': -1.9743245840072632, 'y': -0.780936598777771, 'z': -1.5234994888305664}, 'orientation': {'x': 0.013582393285013794, 'y': 0.018954208089450312, 'z': -0.9970971223502059, 'w': -0.07248161966520505}}"
2023/07/13 14:47:59.248382515,"{'stamp': {'secs': 1689252479, 'nsecs': 245978374}, 'frame_id': 'map'}","{'position': {'x': -1.9727766513824463, 'y': -0.7829191088676453, 'z': -1.5210895538330078}, 'orientation': {'x': 0.013617309288188112, 'y': 0.018995032316638658, 'z': -0.9970965174974048, 'w': -0.0724727012714928}}"
2023/07/13 14:47:59.349688252,"{'stamp': {'secs': 1689252479, 'nsecs': 347918364}, 'frame_id': 'map'}","{'position': {'x': -1.9713422060012817, 'y': -0.7849265933036804, 'z': -1.5200278759002686}, 'orientation': {'x': 0.013612620997764826, 'y': 0.019018120417935398, 'z': -0.997096275251893, 'w': -0.07247085982752871}}"
2023/07/13 14:47:59.451001194,"{'stamp': {'secs': 1689252479, 'nsecs': 446177578}, 'frame_id': 'map'}","{'position': {'x': -1.967390537261963, 'y': -0.7865551710128784, 'z': -1.518570899963379}, 'orientation': {'x': 0.013602131384914453, 'y': 0.019047537312659124, 'z': -0.9970954469801835, 'w': -0.07247649933253186}}"
2023/07/13 14:47:59.553448289,"{'stamp': {'secs': 1689252479, 'nsecs': 547782683}, 'frame_id': 'map'}","{'position': {'x': -1.9640700817108154, 'y': -0.7878798246383667, 'z': -1.519251823425293}, 'orientation': {'x': 0.013576421302102576, 'y': 0.01904614658833412, 'z': -0.9970961320563158, 'w': -0.07247226036972859}}"
2023/07/13 14:47:59.653517355,"{'stamp': {'secs': 1689252479, 'nsecs': 652137407}, 'frame_id': 'map'}","{'position': {'x': -1.9591442346572876, 'y': -0.7860974669456482, 'z': -1.5221335887908936}, 'orientation': {'x': 0.013571050133976265, 'y': 0.019021132438196146, 'z': -0.9970965442856425, 'w': -0.07247416431156539}}"
2023/07/13 14:47:59.743125680,"{'stamp': {'secs': 1689252479, 'nsecs': 739947306}, 'frame_id': 'map'}","{'position': {'x': -1.9552433490753174, 'y': -0.7851654887199402, 'z': -1.5246162414550781}, 'orientation': {'x': 0.013553984608406544, 'y': 0.01899629904215163, 'z': -0.9970966869820119, 'w': -0.0724819076282619}}"
2023/07/13 14:47:59.847339183,"{'stamp': {'secs': 1689252479, 'nsecs': 843904182}, 'frame_id': 'map'}","{'position': {'x': -1.9485763311386108, 'y': -0.7838659286499023, 'z': -1.5281445980072021}, 'orientation': {'x': 0.013526697445771027, 'y': 0.018977480725321308, 'z': -0.9970980780546757, 'w': -0.07247279780167615}}"
2023/07/13 14:47:59.936782213,"{'stamp': {'secs': 1689252479, 'nsecs': 936252608}, 'frame_id': 'map'}","{'position': {'x': -1.943489670753479, 'y': -0.7833154201507568, 'z': -1.5293245315551758}, 'orientation': {'x': 0.013507423026869638, 'y': 0.018987525258816147, 'z': -0.9970972147237189, 'w': -0.07248563856324053}}"
2023/07/13 14:48:00.50365734,"{'stamp': {'secs': 1689252480, 'nsecs': 42652889}, 'frame_id': 'map'}","{'position': {'x': -1.937159776687622, 'y': -0.7789139151573181, 'z': -1.5310568809509277}, 'orientation': {'x': 0.013505888477336142, 'y': 0.018942737265094076, 'z': -0.9970985386373199, 'w': -0.07247943107299054}}"
2023/07/13 14:48:00.153036804,"{'stamp': {'secs': 1689252480, 'nsecs': 146743111}, 'frame_id': 'map'}","{'position': {'x': -1.9315547943115234, 'y': -0.7752300500869751, 'z': -1.5345840454101562}, 'orientation': {'x': 0.013506349926757389, 'y': 0.018925814096434845, 'z': -0.9970975475483359, 'w': -0.07249739819839918}}"
2023/07/13 14:48:00.240810661,"{'stamp': {'secs': 1689252480, 'nsecs': 238836496}, 'frame_id': 'map'}","{'position': {'x': -1.9256705045700073, 'y': -0.7717174291610718, 'z': -1.5367541313171387}, 'orientation': {'x': 0.013508715988956033, 'y': 0.018909356664952623, 'z': -0.9970974756561066, 'w': -0.07250224040033032}}"
2023/07/13 14:48:00.344042707,"{'stamp': {'secs': 1689252480, 'nsecs': 341413605}, 'frame_id': 'map'}","{'position': {'x': -1.9208496809005737, 'y': -0.7694234251976013, 'z': -1.5387134552001953}, 'orientation': {'x': 0.013501553633791621, 'y': 0.01890813046006989, 'z': -0.9970965720259888, 'w': -0.07251632027344507}}"
2023/07/13 14:48:00.450096704,"{'stamp': {'secs': 1689252480, 'nsecs': 448037911}, 'frame_id': 'map'}","{'position': {'x': -1.9160314798355103, 'y': -0.7686256766319275, 'z': -1.5417742729187012}, 'orientation': {'x': 0.01349992684284534, 'y': 0.018953935367738053, 'z': -0.9970955887631101, 'w': -0.07251818515696712}}"
2023/07/13 14:48:00.548223600,"{'stamp': {'secs': 1689252480, 'nsecs': 543614112}, 'frame_id': 'map'}","{'position': {'x': -1.9118279218673706, 'y': -0.7683917284011841, 'z': -1.543330192565918}, 'orientation': {'x': 0.013486449409953433, 'y': 0.019008291857761775, 'z': -0.9970952768838202, 'w': -0.07251075326419548}}"
2023/07/13 14:48:00.654226524,"{'stamp': {'secs': 1689252480, 'nsecs': 644625421}, 'frame_id': 'map'}","{'position': {'x': -1.908363699913025, 'y': -0.7683262228965759, 'z': -1.5454590320587158}, 'orientation': {'x': 0.01350581837138532, 'y': 0.01905758365875565, 'z': -0.9970941732111309, 'w': -0.07250938645182381}}"
2023/07/13 14:48:00.747433546,"{'stamp': {'secs': 1689252480, 'nsecs': 744605131}, 'frame_id': 'map'}","{'position': {'x': -1.905257225036621, 'y': -0.7685685753822327, 'z': -1.5477707386016846}, 'orientation': {'x': 0.01352713545661282, 'y': 0.01908617098706401, 'z': -0.9970933485208217, 'w': -0.07250923402523557}}"
2023/07/13 14:48:00.839416284,"{'stamp': {'secs': 1689252480, 'nsecs': 835554973}, 'frame_id': 'map'}","{'position': {'x': -1.901493787765503, 'y': -0.7672203779220581, 'z': -1.549896001815796}, 'orientation': {'x': 0.013552719748923938, 'y': 0.019087830697033778, 'z': -0.997093858548208, 'w': -0.07249700512528129}}"
2023/07/13 14:48:00.947780702,"{'stamp': {'secs': 1689252480, 'nsecs': 945661372}, 'frame_id': 'map'}","{'position': {'x': -1.898259162902832, 'y': -0.766547679901123, 'z': -1.5510892868041992}, 'orientation': {'x': 0.013550383343094994, 'y': 0.019099265475588222, 'z': -0.9970929946542362, 'w': -0.07250631131836333}}"
2023/07/13 14:48:01.42591768,"{'stamp': {'secs': 1689252481, 'nsecs': 40513419}, 'frame_id': 'map'}","{'position': {'x': -1.89218270778656, 'y': -0.7614014744758606, 'z': -1.5547239780426025}, 'orientation': {'x': 0.01352904847553611, 'y': 0.01907829900692008, 'z': -0.9970919388290371, 'w': -0.07253033073481036}}"
2023/07/13 14:48:01.146310934,"{'stamp': {'secs': 1689252481, 'nsecs': 142969468}, 'frame_id': 'map'}","{'position': {'x': -1.8879296779632568, 'y': -0.7582053542137146, 'z': -1.557081699371338}, 'orientation': {'x': 0.013515131361452002, 'y': 0.019054550855636208, 'z': -0.9970929194739562, 'w': -0.07252568683490879}}"
2023/07/13 14:48:01.248809779,"{'stamp': {'secs': 1689252481, 'nsecs': 247314368}, 'frame_id': 'map'}","{'position': {'x': -1.8844457864761353, 'y': -0.7546897530555725, 'z': -1.5575318336486816}, 'orientation': {'x': 0.013524531184952225, 'y': 0.019060326084634267, 'z': -0.9970917718134285, 'w': -0.07253819413062806}}"
2023/07/13 14:48:01.348435487,"{'stamp': {'secs': 1689252481, 'nsecs': 346783171}, 'frame_id': 'map'}","{'position': {'x': -1.8815109729766846, 'y': -0.7519242763519287, 'z': -1.5585639476776123}, 'orientation': {'x': 0.013541593844994721, 'y': 0.019071782492810885, 'z': -0.9970904672185918, 'w': -0.07254993129213916}}"
2023/07/13 14:48:01.447491590,"{'stamp': {'secs': 1689252481, 'nsecs': 445915884}, 'frame_id': 'map'}","{'position': {'x': -1.876774549484253, 'y': -0.7476575374603271, 'z': -1.56312894821167}, 'orientation': {'x': 0.013547349451409717, 'y': 0.01907004061509136, 'z': -0.9970904732032573, 'w': -0.07254923239487021}}"
2023/07/13 14:48:01.557456173,"{'stamp': {'secs': 1689252481, 'nsecs': 549022594}, 'frame_id': 'map'}","{'position': {'x': -1.8739330768585205, 'y': -0.7456904649734497, 'z': -1.5662047863006592}, 'orientation': {'x': 0.013554698978730939, 'y': 0.019067685660095222, 'z': -0.9970888792385639, 'w': -0.07257038237427427}}"
2023/07/13 14:48:01.644699232,"{'stamp': {'secs': 1689252481, 'nsecs': 636875850}, 'frame_id': 'map'}","{'position': {'x': -1.8686108589172363, 'y': -0.7415903210639954, 'z': -1.5709152221679688}, 'orientation': {'x': 0.013554904507974494, 'y': 0.019059228363139644, 'z': -0.997087832460892, 'w': -0.07258694604693805}}"
2023/07/13 14:48:01.750692522,"{'stamp': {'secs': 1689252481, 'nsecs': 747625332}, 'frame_id': 'map'}","{'position': {'x': -1.8645820617675781, 'y': -0.7389375567436218, 'z': -1.5752031803131104}, 'orientation': {'x': 0.013544549498625895, 'y': 0.019044617801656748, 'z': -0.997088361660343, 'w': -0.07258544449930071}}"
2023/07/13 14:48:01.849800069,"{'stamp': {'secs': 1689252481, 'nsecs': 841558692}, 'frame_id': 'map'}","{'position': {'x': -1.859385371208191, 'y': -0.7349643707275391, 'z': -1.579230785369873}, 'orientation': {'x': 0.013549921592407357, 'y': 0.019072846898014403, 'z': -0.9970882712503855, 'w': -0.07257827134178763}}"
2023/07/13 14:48:01.941897022,"{'stamp': {'secs': 1689252481, 'nsecs': 940107374}, 'frame_id': 'map'}","{'position': {'x': -1.8550746440887451, 'y': -0.731433093547821, 'z': -1.5819101333618164}, 'orientation': {'x': 0.013547996091833301, 'y': 0.019088028793509466, 'z': -0.9970874545501228, 'w': -0.0725858590734475}}"
2023/07/13 14:48:02.53193061,"{'stamp': {'secs': 1689252482, 'nsecs': 49302064}, 'frame_id': 'map'}","{'position': {'x': -1.8496443033218384, 'y': -0.7252852320671082, 'z': -1.5828535556793213}, 'orientation': {'x': 0.01354848721813351, 'y': 0.01906895992091386, 'z': -0.99708753287507, 'w': -0.0725897034484978}}"
2023/07/13 14:48:02.149842739,"{'stamp': {'secs': 1689252482, 'nsecs': 149483243}, 'frame_id': 'map'}","{'position': {'x': -1.84579336643219, 'y': -0.7214515805244446, 'z': -1.5833299160003662}, 'orientation': {'x': 0.013538150957910925, 'y': 0.0190484049753291, 'z': -0.9970873220246836, 'w': -0.07259992420231148}}"
2023/07/13 14:48:02.255041163,"{'stamp': {'secs': 1689252482, 'nsecs': 251434867}, 'frame_id': 'map'}","{'position': {'x': -1.838646411895752, 'y': -0.7141104936599731, 'z': -1.5860743522644043}, 'orientation': {'x': 0.013504154728799525, 'y': 0.01902272615891018, 'z': -0.9970878983980469, 'w': -0.07260507256872434}}"
2023/07/13 14:48:02.359863424,"{'stamp': {'secs': 1689252482, 'nsecs': 351724248}, 'frame_id': 'map'}","{'position': {'x': -1.8323938846588135, 'y': -0.7079282999038696, 'z': -1.5881383419036865}, 'orientation': {'x': 0.013497708662416119, 'y': 0.019002264683064457, 'z': -0.9970878456757801, 'w': -0.07261235296704582}}"
2023/07/13 14:48:02.445603269,"{'stamp': {'secs': 1689252482, 'nsecs': 439756903}, 'frame_id': 'map'}","{'position': {'x': -1.8278318643569946, 'y': -0.7025955319404602, 'z': -1.5895602703094482}, 'orientation': {'x': 0.01350748613735635, 'y': 0.019012794197501178, 'z': -0.9970865327246641, 'w': -0.07262580625480103}}"
2023/07/13 14:48:02.554135363,"{'stamp': {'secs': 1689252482, 'nsecs': 550530474}, 'frame_id': 'map'}","{'position': {'x': -1.8231205940246582, 'y': -0.6973087191581726, 'z': -1.5917878150939941}, 'orientation': {'x': 0.01353736094749583, 'y': 0.01901789273856141, 'z': -0.9970855667594936, 'w': -0.07263217038104275}}"
2023/07/13 14:48:02.640748829,"{'stamp': {'secs': 1689252482, 'nsecs': 635325254}, 'frame_id': 'map'}","{'position': {'x': -1.818493366241455, 'y': -0.6920116543769836, 'z': -1.5920829772949219}, 'orientation': {'x': 0.013530821478500788, 'y': 0.01902082967050425, 'z': -0.9970855484147464, 'w': -0.07263287169888583}}"
2023/07/13 14:48:02.742433770,"{'stamp': {'secs': 1689252482, 'nsecs': 738401941}, 'frame_id': 'map'}","{'position': {'x': -1.8143839836120605, 'y': -0.6876236200332642, 'z': -1.5911574363708496}, 'orientation': {'x': 0.013538348528150548, 'y': 0.01901280230506632, 'z': -0.9970842226826648, 'w': -0.07265176766565717}}"
2023/07/13 14:48:02.851122380,"{'stamp': {'secs': 1689252482, 'nsecs': 847994838}, 'frame_id': 'map'}","{'position': {'x': -1.8109055757522583, 'y': -0.6844866871833801, 'z': -1.5890941619873047}, 'orientation': {'x': 0.013557778418792405, 'y': 0.019060078315798964, 'z': -0.9970814690173646, 'w': -0.07267354540076332}}"
2023/07/13 14:48:02.945220344,"{'stamp': {'secs': 1689252482, 'nsecs': 939728789}, 'frame_id': 'map'}","{'position': {'x': -1.8079568147659302, 'y': -0.6822072863578796, 'z': -1.5880396366119385}, 'orientation': {'x': 0.013559127247744501, 'y': 0.019098262068307077, 'z': -0.9970801013090256, 'w': -0.07268203373484233}}"
2023/07/13 14:48:03.49415655,"{'stamp': {'secs': 1689252483, 'nsecs': 37517404}, 'frame_id': 'map'}","{'position': {'x': -1.803833246231079, 'y': -0.677299439907074, 'z': -1.587547779083252}, 'orientation': {'x': 0.013544908673288334, 'y': 0.019078110534752397, 'z': -0.9970801981035045, 'w': -0.07268864902673727}}"
2023/07/13 14:48:03.151100332,"{'stamp': {'secs': 1689252483, 'nsecs': 150091101}, 'frame_id': 'map'}","{'position': {'x': -1.7994753122329712, 'y': -0.672605037689209, 'z': -1.5883424282073975}, 'orientation': {'x': 0.013532757283514725, 'y': 0.019047482978768637, 'z': -0.9970807119095167, 'w': -0.07269189645683094}}"
2023/07/13 14:48:03.253495020,"{'stamp': {'secs': 1689252483, 'nsecs': 249192786}, 'frame_id': 'map'}","{'position': {'x': -1.7943832874298096, 'y': -0.6683177947998047, 'z': -1.5883371829986572}, 'orientation': {'x': 0.013518173112696163, 'y': 0.019045544647772365, 'z': -0.9970807832632561, 'w': -0.07269413918533157}}"
2023/07/13 14:48:03.337250489,"{'stamp': {'secs': 1689252483, 'nsecs': 336501941}, 'frame_id': 'map'}","{'position': {'x': -1.7902216911315918, 'y': -0.6653144359588623, 'z': -1.5885460376739502}, 'orientation': {'x': 0.013504490237045894, 'y': 0.019048441068445367, 'z': -0.9970811455452049, 'w': -0.07269095428291766}}"
2023/07/13 14:48:03.452358512,"{'stamp': {'secs': 1689252483, 'nsecs': 448970065}, 'frame_id': 'map'}","{'position': {'x': -1.7844345569610596, 'y': -0.6602753400802612, 'z': -1.588782787322998}, 'orientation': {'x': 0.013487355528640136, 'y': 0.019054024165480698, 'z': -0.9970825138170498, 'w': -0.07267390208470847}}"
2023/07/13 14:48:03.548345932,"{'stamp': {'secs': 1689252483, 'nsecs': 545737125}, 'frame_id': 'map'}","{'position': {'x': -1.7799447774887085, 'y': -0.6564248204231262, 'z': -1.5904104709625244}, 'orientation': {'x': 0.013474202550131653, 'y': 0.019060230681872858, 'z': -0.9970820766041493, 'w': -0.07268071261861148}}"
2023/07/13 14:48:03.645211065,"{'stamp': {'secs': 1689252483, 'nsecs': 644333426}, 'frame_id': 'map'}","{'position': {'x': -1.776205062866211, 'y': -0.6493242979049683, 'z': -1.5932531356811523}, 'orientation': {'x': 0.013477781004896685, 'y': 0.019018582922644387, 'z': -0.9970829619501578, 'w': -0.07267881336055954}}"
2023/07/13 14:48:03.743419185,"{'stamp': {'secs': 1689252483, 'nsecs': 740842285}, 'frame_id': 'map'}","{'position': {'x': -1.772578477859497, 'y': -0.6422907114028931, 'z': -1.5958170890808105}, 'orientation': {'x': 0.013494013025117865, 'y': 0.019002807227705674, 'z': -0.9970843202491158, 'w': -0.07266129123063764}}"
2023/07/13 14:48:03.849617816,"{'stamp': {'secs': 1689252483, 'nsecs': 848374236}, 'frame_id': 'map'}","{'position': {'x': -1.7706732749938965, 'y': -0.6368613243103027, 'z': -1.5980231761932373}, 'orientation': {'x': 0.013532561071463615, 'y': 0.01900782987317088, 'z': -0.9970839970321187, 'w': -0.07265724366375043}}"
2023/07/13 14:48:03.951112792,"{'stamp': {'secs': 1689252483, 'nsecs': 950422669}, 'frame_id': 'map'}","{'position': {'x': -1.7690045833587646, 'y': -0.6314598321914673, 'z': -1.5990605354309082}, 'orientation': {'x': 0.013540552833105924, 'y': 0.019023862288212443, 'z': -0.9970836830751616, 'w': -0.07265586719517964}}"
2023/07/13 14:48:04.57202246,"{'stamp': {'secs': 1689252484, 'nsecs': 51035326}, 'frame_id': 'map'}","{'position': {'x': -1.7683179378509521, 'y': -0.6259821057319641, 'z': -1.5993120670318604}, 'orientation': {'x': 0.013577293583652228, 'y': 0.01902168134713256, 'z': -0.9970839873579833, 'w': -0.07264540516768042}}"
2023/07/13 14:48:04.148477781,"{'stamp': {'secs': 1689252484, 'nsecs': 146037435}, 'frame_id': 'map'}","{'position': {'x': -1.7678147554397583, 'y': -0.6213871240615845, 'z': -1.6000144481658936}, 'orientation': {'x': 0.013608774803758161, 'y': 0.01902997162388104, 'z': -0.9970821879971741, 'w': -0.07266203828067852}}"
2023/07/13 14:48:04.236915141,"{'stamp': {'secs': 1689252484, 'nsecs': 235165677}, 'frame_id': 'map'}","{'position': {'x': -1.766258716583252, 'y': -0.616142749786377, 'z': -1.6017136573791504}, 'orientation': {'x': 0.013617170423799735, 'y': 0.01903463332576866, 'z': -0.9970809533380784, 'w': -0.07267618519316565}}"
2023/07/13 14:48:04.349731220,"{'stamp': {'secs': 1689252484, 'nsecs': 346519845}, 'frame_id': 'map'}","{'position': {'x': -1.7648167610168457, 'y': -0.6117228865623474, 'z': -1.6028923988342285}, 'orientation': {'x': 0.013607327445119452, 'y': 0.01905367406539628, 'z': -0.9970803135219575, 'w': -0.07268181706153454}}"
2023/07/13 14:48:04.444616905,"{'stamp': {'secs': 1689252484, 'nsecs': 443369676}, 'frame_id': 'map'}","{'position': {'x': -1.7626211643218994, 'y': -0.6072020530700684, 'z': -1.6040730476379395}, 'orientation': {'x': 0.013600027048652935, 'y': 0.019068644593242735, 'z': -0.997079404792221, 'w': -0.07269172302843574}}"
2023/07/13 14:48:04.549229140,"{'stamp': {'secs': 1689252484, 'nsecs': 543849305}, 'frame_id': 'map'}","{'position': {'x': -1.7606637477874756, 'y': -0.6027195453643799, 'z': -1.6046955585479736}, 'orientation': {'x': 0.013586722028029706, 'y': 0.019084922693592073, 'z': -0.9970799829282102, 'w': -0.07268200846284328}}"
2023/07/13 14:48:04.649539344,"{'stamp': {'secs': 1689252484, 'nsecs': 646451727}, 'frame_id': 'map'}","{'position': {'x': -1.760279893875122, 'y': -0.5972463488578796, 'z': -1.6023290157318115}, 'orientation': {'x': 0.013610896211861808, 'y': 0.019075341367631202, 'z': -0.997079706243676, 'w': -0.0726837963582187}}"
2023/07/13 14:48:04.740690251,"{'stamp': {'secs': 1689252484, 'nsecs': 738913953}, 'frame_id': 'map'}","{'position': {'x': -1.7598928213119507, 'y': -0.5936525464057922, 'z': -1.6011700630187988}, 'orientation': {'x': 0.013629613734962362, 'y': 0.019093149428189255, 'z': -0.9970775818993463, 'w': -0.0727047518949126}}"
2023/07/13 14:48:04.853275518,"{'stamp': {'secs': 1689252484, 'nsecs': 852705616}, 'frame_id': 'map'}","{'position': {'x': -1.7589271068572998, 'y': -0.5906524062156677, 'z': -1.6026592254638672}, 'orientation': {'x': 0.01365641303886078, 'y': 0.019151585455547775, 'z': -0.9970758419350645, 'w': -0.07270821540192779}}"
2023/07/13 14:48:04.947916945,"{'stamp': {'secs': 1689252484, 'nsecs': 943693172}, 'frame_id': 'map'}","{'position': {'x': -1.7581664323806763, 'y': -0.5884717106819153, 'z': -1.6043732166290283}, 'orientation': {'x': 0.013655606168671902, 'y': 0.019197555531775892, 'z': -0.9970746960946979, 'w': -0.072711956990829}}"
2023/07/13 14:48:05.47132018,"{'stamp': {'secs': 1689252485, 'nsecs': 37895961}, 'frame_id': 'map'}","{'position': {'x': -1.756830096244812, 'y': -0.5839092135429382, 'z': -1.6038436889648438}, 'orientation': {'x': 0.013649838279581826, 'y': 0.019195359667358722, 'z': -0.9970740865148158, 'w': -0.07272197799033941}}"
2023/07/13 14:48:05.142008381,"{'stamp': {'secs': 1689252485, 'nsecs': 140546821}, 'frame_id': 'map'}","{'position': {'x': -1.7557967901229858, 'y': -0.5802186131477356, 'z': -1.6044180393218994}, 'orientation': {'x': 0.013643969785909489, 'y': 0.019207682894312492, 'z': -0.9970729900670616, 'w': -0.07273485742779368}}"
2023/07/13 14:48:05.251781302,"{'stamp': {'secs': 1689252485, 'nsecs': 247776563}, 'frame_id': 'map'}","{'position': {'x': -1.7518137693405151, 'y': -0.574242889881134, 'z': -1.6049575805664062}, 'orientation': {'x': 0.01361013281753584, 'y': 0.019212536126010083, 'z': -0.9970723550197041, 'w': -0.07274861920171721}}"
2023/07/13 14:48:05.338783816,"{'stamp': {'secs': 1689252485, 'nsecs': 336721689}, 'frame_id': 'map'}","{'position': {'x': -1.7494004964828491, 'y': -0.571069598197937, 'z': -1.6059787273406982}, 'orientation': {'x': 0.013558565123168678, 'y': 0.019219866781034326, 'z': -0.9970725539357332, 'w': -0.07275358562156597}}"
2023/07/13 14:48:05.448554959,"{'stamp': {'secs': 1689252485, 'nsecs': 434297470}, 'frame_id': 'map'}","{'position': {'x': -1.7408897876739502, 'y': -0.5632482171058655, 'z': -1.606764316558838}, 'orientation': {'x': 0.01348664541839559, 'y': 0.01919278891395519, 'z': -0.9970725761187709, 'w': -0.07277379474055595}}"
2023/07/13 14:48:05.543878188,"{'stamp': {'secs': 1689252485, 'nsecs': 542925698}, 'frame_id': 'map'}","{'position': {'x': -1.734066128730774, 'y': -0.5576106905937195, 'z': -1.6064128875732422}, 'orientation': {'x': 0.013422443217307633, 'y': 0.019173104076439684, 'z': -0.9970742092137057, 'w': -0.07276847819637111}}"
2023/07/13 14:48:05.649531705,"{'stamp': {'secs': 1689252485, 'nsecs': 648694769}, 'frame_id': 'map'}","{'position': {'x': -1.7278245687484741, 'y': -0.5490748286247253, 'z': -1.6045560836791992}, 'orientation': {'x': 0.013407746342694706, 'y': 0.019156024138341693, 'z': -0.9970753781248878, 'w': -0.07275966887179364}}"
2023/07/13 14:48:05.748542157,"{'stamp': {'secs': 1689252485, 'nsecs': 747425891}, 'frame_id': 'map'}","{'position': {'x': -1.7229881286621094, 'y': -0.5429931282997131, 'z': -1.604660987854004}, 'orientation': {'x': 0.013415382629747544, 'y': 0.0191567119522374, 'z': -0.9970746502608887, 'w': -0.07276805413918425}}"
2023/07/13 14:48:05.846821395,"{'stamp': {'secs': 1689252485, 'nsecs': 840146497}, 'frame_id': 'map'}","{'position': {'x': -1.7172749042510986, 'y': -0.534690260887146, 'z': -1.6073176860809326}, 'orientation': {'x': 0.013413402353894441, 'y': 0.01914582196673316, 'z': -0.9970746435473271, 'w': -0.07277137715806459}}"
2023/07/13 14:48:05.943226743,"{'stamp': {'secs': 1689252485, 'nsecs': 938904508}, 'frame_id': 'map'}","{'position': {'x': -1.7130179405212402, 'y': -0.5291462540626526, 'z': -1.6093580722808838}, 'orientation': {'x': 0.013406450822694907, 'y': 0.01914435712985297, 'z': -0.9970740499176133, 'w': -0.07278117646281851}}"
2023/07/13 14:48:06.49547204,"{'stamp': {'secs': 1689252486, 'nsecs': 43008267}, 'frame_id': 'map'}","{'position': {'x': -1.704638957977295, 'y': -0.5211747288703918, 'z': -1.6138651371002197}, 'orientation': {'x': 0.013368697382411488, 'y': 0.019135961367066863, 'z': -0.997073465860929, 'w': -0.07279832820148174}}"
2023/07/13 14:48:06.142625060,"{'stamp': {'secs': 1689252486, 'nsecs': 140824355}, 'frame_id': 'map'}","{'position': {'x': -1.6971838474273682, 'y': -0.5146113634109497, 'z': -1.6184256076812744}, 'orientation': {'x': 0.013345413924575129, 'y': 0.019138401283392212, 'z': -0.9970738131564378, 'w': -0.07279720215213276}}"
2023/07/13 14:48:06.254999617,"{'stamp': {'secs': 1689252486, 'nsecs': 244874678}, 'frame_id': 'map'}","{'position': {'x': -1.6922639608383179, 'y': -0.5094656944274902, 'z': -1.6209805011749268}, 'orientation': {'x': 0.013340986088640677, 'y': 0.0191488979152086, 'z': -0.997071888746903, 'w': -0.07282160716091907}}"
2023/07/13 14:48:06.344844431,"{'stamp': {'secs': 1689252486, 'nsecs': 344114308}, 'frame_id': 'map'}","{'position': {'x': -1.6871200799942017, 'y': -0.5045010447502136, 'z': -1.6228537559509277}, 'orientation': {'x': 0.013352767212290185, 'y': 0.01916154875184445, 'z': -0.9970710313938249, 'w': -0.0728278587661299}}"
2023/07/13 14:48:06.449557137,"{'stamp': {'secs': 1689252486, 'nsecs': 441129904}, 'frame_id': 'map'}","{'position': {'x': -1.6822328567504883, 'y': -0.49907562136650085, 'z': -1.6218931674957275}, 'orientation': {'x': 0.013374567103724687, 'y': 0.019182959684993207, 'z': -0.997069920490963, 'w': -0.07283343095486106}}"
2023/07/13 14:48:06.545345115,"{'stamp': {'secs': 1689252486, 'nsecs': 543276153}, 'frame_id': 'map'}","{'position': {'x': -1.6773121356964111, 'y': -0.49465152621269226, 'z': -1.6218345165252686}, 'orientation': {'x': 0.0133895737486158, 'y': 0.019176423315052774, 'z': -0.997068707943596, 'w': -0.07284899274087736}}"
2023/07/13 14:48:06.647141423,"{'stamp': {'secs': 1689252486, 'nsecs': 640364211}, 'frame_id': 'map'}","{'position': {'x': -1.6700258255004883, 'y': -0.48869872093200684, 'z': -1.6234922409057617}, 'orientation': {'x': 0.013345237294066935, 'y': 0.01917154180141694, 'z': -0.9970682179100613, 'w': -0.07286511826776959}}"
2023/07/13 14:48:06.739348825,"{'stamp': {'secs': 1689252486, 'nsecs': 737452398}, 'frame_id': 'map'}","{'position': {'x': -1.6630836725234985, 'y': -0.4836902916431427, 'z': -1.6238477230072021}, 'orientation': {'x': 0.013321438114243423, 'y': 0.019168325741011, 'z': -0.9970682140402821, 'w': -0.07287037206832891}}"
2023/07/13 14:48:06.846430989,"{'stamp': {'secs': 1689252486, 'nsecs': 843657960}, 'frame_id': 'map'}","{'position': {'x': -1.657698154449463, 'y': -0.4754961431026459, 'z': -1.6228249073028564}, 'orientation': {'x': 0.013335043983779932, 'y': 0.019136900687583856, 'z': -0.9970679657078219, 'w': -0.07287954029280086}}"
2023/07/13 14:48:06.947324917,"{'stamp': {'secs': 1689252486, 'nsecs': 945288808}, 'frame_id': 'map'}","{'position': {'x': -1.653161644935608, 'y': -0.46938520669937134, 'z': -1.622316837310791}, 'orientation': {'x': 0.013350286920322899, 'y': 0.019145891348332594, 'z': -0.9970667520931049, 'w': -0.07289099089825873}}"
2023/07/13 14:48:07.56537105,"{'stamp': {'secs': 1689252487, 'nsecs': 51319322}, 'frame_id': 'map'}","{'position': {'x': -1.6497671604156494, 'y': -0.46323883533477783, 'z': -1.6228141784667969}, 'orientation': {'x': 0.013382069646779344, 'y': 0.019170487726309363, 'z': -0.9970670812235329, 'w': -0.07287419401056128}}"
2023/07/13 14:48:07.149062386,"{'stamp': {'secs': 1689252487, 'nsecs': 144255877}, 'frame_id': 'map'}","{'position': {'x': -1.6470646858215332, 'y': -0.4596773386001587, 'z': -1.623946189880371}, 'orientation': {'x': 0.01339873800964563, 'y': 0.01920961534820998, 'z': -0.9970666687449288, 'w': -0.07286647086152298}}"
2023/07/13 14:48:07.253986807,"{'stamp': {'secs': 1689252487, 'nsecs': 245021671}, 'frame_id': 'map'}","{'position': {'x': -1.6441439390182495, 'y': -0.4531097710132599, 'z': -1.6240336894989014}, 'orientation': {'x': 0.013419688976633424, 'y': 0.01923006987791841, 'z': -0.9970660135310241, 'w': -0.07286618572158438}}"
2023/07/13 14:48:07.342547571,"{'stamp': {'secs': 1689252487, 'nsecs': 340226037}, 'frame_id': 'map'}","{'position': {'x': -1.6412996053695679, 'y': -0.4484633803367615, 'z': -1.6245672702789307}, 'orientation': {'x': 0.01342993184911674, 'y': 0.019229364942905332, 'z': -0.9970664262981033, 'w': -0.07285883613913663}}"
2023/07/13 14:48:07.453953059,"{'stamp': {'secs': 1689252487, 'nsecs': 450869496}, 'frame_id': 'map'}","{'position': {'x': -1.637600064277649, 'y': -0.4433668553829193, 'z': -1.6263718605041504}, 'orientation': {'x': 0.013439560186270846, 'y': 0.01923644175436416, 'z': -0.9970653040887778, 'w': -0.07287054900975787}}"
2023/07/13 14:48:07.551344349,"{'stamp': {'secs': 1689252487, 'nsecs': 549081204}, 'frame_id': 'map'}","{'position': {'x': -1.6343320608139038, 'y': -0.4375748336315155, 'z': -1.6283340454101562}, 'orientation': {'x': 0.013427700235813028, 'y': 0.01922348891281646, 'z': -0.9970660744565603, 'w': -0.07286561265906533}}"
2023/07/13 14:48:07.641043879,"{'stamp': {'secs': 1689252487, 'nsecs': 636780624}, 'frame_id': 'map'}","{'position': {'x': -1.6327303647994995, 'y': -0.4311427175998688, 'z': -1.6271312236785889}, 'orientation': {'x': 0.013462991015756499, 'y': 0.019200532861600225, 'z': -0.9970665161979759, 'w': -0.07285910847362714}}"
2023/07/13 14:48:07.748531313,"{'stamp': {'secs': 1689252487, 'nsecs': 744545295}, 'frame_id': 'map'}","{'position': {'x': -1.6313430070877075, 'y': -0.4256434440612793, 'z': -1.6259105205535889}, 'orientation': {'x': 0.013495835700146125, 'y': 0.019193649538865317, 'z': -0.9970662903502393, 'w': -0.07285793630995874}}"
2023/07/13 14:48:07.848783056,"{'stamp': {'secs': 1689252487, 'nsecs': 846825316}, 'frame_id': 'map'}","{'position': {'x': -1.6312425136566162, 'y': -0.42166224122047424, 'z': -1.6223924160003662}, 'orientation': {'x': 0.013534523147650543, 'y': 0.019233914442232762, 'z': -0.9970657039383185, 'w': -0.0728481657173331}}"
2023/07/13 14:48:07.952991096,"{'stamp': {'secs': 1689252487, 'nsecs': 952507637}, 'frame_id': 'map'}","{'position': {'x': -1.6310124397277832, 'y': -0.41777685284614563, 'z': -1.6183626651763916}, 'orientation': {'x': 0.013560760308915794, 'y': 0.019268661866484637, 'z': -0.997062937656906, 'w': -0.07287196169103638}}"
2023/07/13 14:48:08.49772953,"{'stamp': {'secs': 1689252488, 'nsecs': 47800638}, 'frame_id': 'map'}","{'position': {'x': -1.6299017667770386, 'y': -0.4108027219772339, 'z': -1.612807035446167}, 'orientation': {'x': 0.013587944459907825, 'y': 0.019234748109179568, 'z': -0.9970627105477856, 'w': -0.0728789644934229}}"
2023/07/13 14:48:08.149504955,"{'stamp': {'secs': 1689252488, 'nsecs': 148266078}, 'frame_id': 'map'}","{'position': {'x': -1.6282483339309692, 'y': -0.40349361300468445, 'z': -1.6071527004241943}, 'orientation': {'x': 0.013601944383062335, 'y': 0.0191883979233274, 'z': -0.997063672505417, 'w': -0.0728754105590273}}"
2023/07/13 14:48:08.254180744,"{'stamp': {'secs': 1689252488, 'nsecs': 245743027}, 'frame_id': 'map'}","{'position': {'x': -1.6232434511184692, 'y': -0.394949346780777, 'z': -1.6019625663757324}, 'orientation': {'x': 0.01354851486800568, 'y': 0.019141263527854516, 'z': -0.9970660827433446, 'w': -0.07286478174173516}}"
2023/07/13 14:48:08.357167419,"{'stamp': {'secs': 1689252488, 'nsecs': 344870572}, 'frame_id': 'map'}","{'position': {'x': -1.6188522577285767, 'y': -0.3880120515823364, 'z': -1.5991849899291992}, 'orientation': {'x': 0.013505208432772853, 'y': 0.019136803894831557, 'z': -0.9970664829784468, 'w': -0.07286851585471388}}"
2023/07/13 14:48:08.447639287,"{'stamp': {'secs': 1689252488, 'nsecs': 438903702}, 'frame_id': 'map'}","{'position': {'x': -1.614743709564209, 'y': -0.3819011449813843, 'z': -1.5979557037353516}, 'orientation': {'x': 0.013477696250565654, 'y': 0.019118512424107382, 'z': -0.997066081799452, 'w': -0.07288389884984797}}"
2023/07/13 14:48:08.551593323,"{'stamp': {'secs': 1689252488, 'nsecs': 548355409}, 'frame_id': 'map'}","{'position': {'x': -1.6108739376068115, 'y': -0.3765902817249298, 'z': -1.5963733196258545}, 'orientation': {'x': 0.013463857248042652, 'y': 0.019137551404516614, 'z': -0.9970660935582873, 'w': -0.07288129904619128}}"
2023/07/13 14:48:08.653133790,"{'stamp': {'secs': 1689252488, 'nsecs': 649247549}, 'frame_id': 'map'}","{'position': {'x': -1.6089787483215332, 'y': -0.37395766377449036, 'z': -1.5971460342407227}, 'orientation': {'x': 0.013505808757197776, 'y': 0.01918833252481293, 'z': -0.9970650004283158, 'w': -0.07287513942088758}}"
2023/07/13 14:48:08.740153819,"{'stamp': {'secs': 1689252488, 'nsecs': 738533205}, 'frame_id': 'map'}","{'position': {'x': -1.6072012186050415, 'y': -0.37199047207832336, 'z': -1.5972962379455566}, 'orientation': {'x': 0.013531034418058332, 'y': 0.019247669815537185, 'z': -0.9970620947984279, 'w': -0.07289456379196069}}"
2023/07/13 14:48:08.841220402,"{'stamp': {'secs': 1689252488, 'nsecs': 839258531}, 'frame_id': 'map'}","{'position': {'x': -1.6050292253494263, 'y': -0.36980634927749634, 'z': -1.5973753929138184}, 'orientation': {'x': 0.0135335873959059, 'y': 0.019281616759035204, 'z': -0.9970622767502434, 'w': -0.07288262858168604}}"
2023/07/13 14:48:08.944307131,"{'stamp': {'secs': 1689252488, 'nsecs': 940579722}, 'frame_id': 'map'}","{'position': {'x': -1.603334903717041, 'y': -0.36816078424453735, 'z': -1.5975749492645264}, 'orientation': {'x': 0.013526195259923665, 'y': 0.019304059219719116, 'z': -0.9970622677344141, 'w': -0.07287818329060852}}"
2023/07/13 14:48:09.42613652,"{'stamp': {'secs': 1689252489, 'nsecs': 41778567}, 'frame_id': 'map'}","{'position': {'x': -1.6018136739730835, 'y': -0.36486631631851196, 'z': -1.5967974662780762}, 'orientation': {'x': 0.013528500325229969, 'y': 0.019309673451513097, 'z': -0.9970624361628878, 'w': -0.07287396368438676}}"
2023/07/13 14:48:09.142991587,"{'stamp': {'secs': 1689252489, 'nsecs': 139998300}, 'frame_id': 'map'}","{'position': {'x': -1.6005432605743408, 'y': -0.3627506494522095, 'z': -1.5962660312652588}, 'orientation': {'x': 0.013540636083151134, 'y': 0.019304156179227, 'z': -0.9970611502205022, 'w': -0.07289076381573212}}"
2023/07/13 14:48:09.239696408,"{'stamp': {'secs': 1689252489, 'nsecs': 235988368}, 'frame_id': 'map'}","{'position': {'x': -1.59974205493927, 'y': -0.3609701097011566, 'z': -1.5938482284545898}, 'orientation': {'x': 0.013548345065272922, 'y': 0.019317420997248612, 'z': -0.9970607691558467, 'w': -0.07289102964260163}}"
2023/07/13 14:48:09.340117916,"{'stamp': {'secs': 1689252489, 'nsecs': 337480404}, 'frame_id': 'map'}","{'position': {'x': -1.5990259647369385, 'y': -0.35976213216781616, 'z': -1.59295654296875}, 'orientation': {'x': 0.01355786129140696, 'y': 0.019358173820722552, 'z': -0.9970615515756207, 'w': -0.07286774233599658}}"
2023/07/13 14:48:09.443287325,"{'stamp': {'secs': 1689252489, 'nsecs': 437975078}, 'frame_id': 'map'}","{'position': {'x': -1.5996105670928955, 'y': -0.3559882640838623, 'z': -1.5963876247406006}, 'orientation': {'x': 0.01359024181178006, 'y': 0.019366119706476483, 'z': -0.9970611677151126, 'w': -0.07286485140030041}}"
2023/07/13 14:48:09.549259245,"{'stamp': {'secs': 1689252489, 'nsecs': 542919119}, 'frame_id': 'map'}","{'position': {'x': -1.5998045206069946, 'y': -0.35344618558883667, 'z': -1.5983598232269287}, 'orientation': {'x': 0.013601802046200285, 'y': 0.01936718968050849, 'z': -0.9970603224672461, 'w': -0.07287397550900082}}"
2023/07/13 14:48:09.650592189,"{'stamp': {'secs': 1689252489, 'nsecs': 645275442}, 'frame_id': 'map'}","{'position': {'x': -1.5991452932357788, 'y': -0.3500855267047882, 'z': -1.5984444618225098}, 'orientation': {'x': 0.013604388001394224, 'y': 0.01936233307112613, 'z': -0.9970598991241852, 'w': -0.0728805752146619}}"
2023/07/13 14:48:09.740708423,"{'stamp': {'secs': 1689252489, 'nsecs': 737314140}, 'frame_id': 'map'}","{'position': {'x': -1.5986098051071167, 'y': -0.3473982512950897, 'z': -1.5997495651245117}, 'orientation': {'x': 0.013589906802457117, 'y': 0.019358273198696676, 'z': -0.9970597443765364, 'w': -0.07288647224047101}}"
2023/07/13 14:48:09.839757778,"{'stamp': {'secs': 1689252489, 'nsecs': 837790500}, 'frame_id': 'map'}","{'position': {'x': -1.597782015800476, 'y': -0.3435317873954773, 'z': -1.597712516784668}, 'orientation': {'x': 0.013584907422484102, 'y': 0.019355432867619406, 'z': -0.9970590704845353, 'w': -0.0728973763131689}}"
2023/07/13 14:48:09.949775289,"{'stamp': {'secs': 1689252489, 'nsecs': 946452524}, 'frame_id': 'map'}","{'position': {'x': -1.597521185874939, 'y': -0.3396179974079132, 'z': -1.5948395729064941}, 'orientation': {'x': 0.013586084089216273, 'y': 0.01935817285093972, 'z': -0.9970592837113117, 'w': -0.07289351293551377}}"
2023/07/13 14:48:10.46913241,"{'stamp': {'secs': 1689252490, 'nsecs': 45347034}, 'frame_id': 'map'}","{'position': {'x': -1.5986114740371704, 'y': -0.3343698978424072, 'z': -1.5910558700561523}, 'orientation': {'x': 0.013616130940645798, 'y': 0.019350984835715797, 'z': -0.9970595553058672, 'w': -0.07288609975407695}}"
2023/07/13 14:48:10.146919285,"{'stamp': {'secs': 1689252490, 'nsecs': 142493974}, 'frame_id': 'map'}","{'position': {'x': -1.5999809503555298, 'y': -0.32953307032585144, 'z': -1.5877699851989746}, 'orientation': {'x': 0.013665106514169242, 'y': 0.019330874010772013, 'z': -0.9970592106618064, 'w': -0.072886985178369}}"
2023/07/13 14:48:10.250373056,"{'stamp': {'secs': 1689252490, 'nsecs': 247615026}, 'frame_id': 'map'}","{'position': {'x': -1.6022655963897705, 'y': -0.32343995571136475, 'z': -1.5849359035491943}, 'orientation': {'x': 0.013710267679839608, 'y': 0.019293356846684186, 'z': -0.997058670317938, 'w': -0.0728958358588398}}"
2023/07/13 14:48:10.348055398,"{'stamp': {'secs': 1689252490, 'nsecs': 346447598}, 'frame_id': 'map'}","{'position': {'x': -1.6043376922607422, 'y': -0.31928062438964844, 'z': -1.5835862159729004}, 'orientation': {'x': 0.013711007539355667, 'y': 0.019306809074275226, 'z': -0.9970590864756663, 'w': -0.07288644230537816}}"
2023/07/13 14:48:10.442527511,"{'stamp': {'secs': 1689252490, 'nsecs': 440531715}, 'frame_id': 'map'}","{'position': {'x': -1.6064293384552002, 'y': -0.3172449767589569, 'z': -1.5836989879608154}, 'orientation': {'x': 0.01372056446189512, 'y': 0.019345738760710475, 'z': -0.9970574246990437, 'w': -0.07289705313083872}}"
2023/07/13 14:48:10.539331251,"{'stamp': {'secs': 1689252490, 'nsecs': 537550026}, 'frame_id': 'map'}","{'position': {'x': -1.6080788373947144, 'y': -0.3161405324935913, 'z': -1.5837340354919434}, 'orientation': {'x': 0.013720527270721131, 'y': 0.019383504574019293, 'z': -0.9970567903941316, 'w': -0.07289570365114062}}"
2023/07/13 14:48:10.649774772,"{'stamp': {'secs': 1689252490, 'nsecs': 635753123}, 'frame_id': 'map'}","{'position': {'x': -1.6088947057724, 'y': -0.31277018785476685, 'z': -1.5840213298797607}, 'orientation': {'x': 0.013735512654237019, 'y': 0.01938408010144846, 'z': -0.9970566976012719, 'w': -0.07289399768973892}}"
2023/07/13 14:48:10.743363893,"{'stamp': {'secs': 1689252490, 'nsecs': 742514438}, 'frame_id': 'map'}","{'position': {'x': -1.609679102897644, 'y': -0.3105672597885132, 'z': -1.5834424495697021}, 'orientation': {'x': 0.01372132154827792, 'y': 0.019382128910962335, 'z': -0.9970583402111699, 'w': -0.07287471872463647}}"
2023/07/13 14:48:10.844300687,"{'stamp': {'secs': 1689252490, 'nsecs': 842133374}, 'frame_id': 'map'}","{'position': {'x': -1.6133607625961304, 'y': -0.3066369891166687, 'z': -1.5859365463256836}, 'orientation': {'x': 0.013746630819727526, 'y': 0.019389731283114813, 'z': -0.9970585561941396, 'w': -0.07286497088404115}}"
2023/07/13 14:48:10.947035335,"{'stamp': {'secs': 1689252490, 'nsecs': 944604913}, 'frame_id': 'map'}","{'position': {'x': -1.6158638000488281, 'y': -0.3040662109851837, 'z': -1.5870897769927979}, 'orientation': {'x': 0.013773890578168404, 'y': 0.019382902835780983, 'z': -0.9970576469870325, 'w': -0.07287408044484278}}"
2023/07/13 14:48:11.45825229,"{'stamp': {'secs': 1689252491, 'nsecs': 40435222}, 'frame_id': 'map'}","{'position': {'x': -1.6153582334518433, 'y': -0.3010901212692261, 'z': -1.5888638496398926}, 'orientation': {'x': 0.013740463304690578, 'y': 0.01938063761001901, 'z': -0.9970599336731747, 'w': -0.0728497029345081}}"
2023/07/13 14:48:11.145049551,"{'stamp': {'secs': 1689252491, 'nsecs': 143039050}, 'frame_id': 'map'}","{'position': {'x': -1.6149898767471313, 'y': -0.29881206154823303, 'z': -1.590080976486206}, 'orientation': {'x': 0.013710898285473417, 'y': 0.019401786164006365, 'z': -0.9970604735959279, 'w': -0.07284225390880905}}"
2023/07/13 14:48:11.254344782,"{'stamp': {'secs': 1689252491, 'nsecs': 253334217}, 'frame_id': 'map'}","{'position': {'x': -1.6140002012252808, 'y': -0.29326632618904114, 'z': -1.5911321640014648}, 'orientation': {'x': 0.013689526170777249, 'y': 0.019391995208710867, 'z': -0.9970599850252222, 'w': -0.07285556709372965}}"
2023/07/13 14:48:11.345619824,"{'stamp': {'secs': 1689252491, 'nsecs': 340933033}, 'frame_id': 'map'}","{'position': {'x': -1.6135129928588867, 'y': -0.2900407016277313, 'z': -1.5921952724456787}, 'orientation': {'x': 0.013695123793025657, 'y': 0.019365781488178822, 'z': -0.9970602167047438, 'w': -0.07285831700180201}}"
2023/07/13 14:48:11.453257125,"{'stamp': {'secs': 1689252491, 'nsecs': 446176745}, 'frame_id': 'map'}","{'position': {'x': -1.613101601600647, 'y': -0.2892868220806122, 'z': -1.594257116317749}, 'orientation': {'x': 0.013679318485191612, 'y': 0.019433423713047796, 'z': -0.9970588260564541, 'w': -0.07286230624606754}}"
2023/07/13 14:48:11.537610564,"{'stamp': {'secs': 1689252491, 'nsecs': 536394816}, 'frame_id': 'map'}","{'position': {'x': -1.6129255294799805, 'y': -0.2887085974216461, 'z': -1.5968546867370605}, 'orientation': {'x': 0.01368420197942558, 'y': 0.01948725675613345, 'z': -0.9970570427056002, 'w': -0.07287141436441069}}"
2023/07/13 14:48:11.643581825,"{'stamp': {'secs': 1689252491, 'nsecs': 640226726}, 'frame_id': 'map'}","{'position': {'x': -1.6135205030441284, 'y': -0.2857814133167267, 'z': -1.5996439456939697}, 'orientation': {'x': 0.013703100360791481, 'y': 0.019492960156688506, 'z': -0.9970566900448639, 'w': -0.07287116289460499}}"
2023/07/13 14:48:11.748016859,"{'stamp': {'secs': 1689252491, 'nsecs': 742726389}, 'frame_id': 'map'}","{'position': {'x': -1.6142405271530151, 'y': -0.28398966789245605, 'z': -1.6020379066467285}, 'orientation': {'x': 0.013707285310802906, 'y': 0.019486501810833886, 'z': -0.9970556953042897, 'w': -0.07288571216544426}}"
2023/07/13 14:48:11.850269950,"{'stamp': {'secs': 1689252491, 'nsecs': 846154154}, 'frame_id': 'map'}","{'position': {'x': -1.6148080825805664, 'y': -0.27921852469444275, 'z': -1.600902795791626}, 'orientation': {'x': 0.013708750706948073, 'y': 0.01945024628890347, 'z': -0.9970549364996049, 'w': -0.07290549825030057}}"
2023/07/13 14:48:11.947171553,"{'stamp': {'secs': 1689252491, 'nsecs': 943599196}, 'frame_id': 'map'}","{'position': {'x': -1.6155667304992676, 'y': -0.27628883719444275, 'z': -1.5993762016296387}, 'orientation': {'x': 0.01370748292708399, 'y': 0.019426925960831183, 'z': -0.9970563203022214, 'w': -0.07289302850691803}}"
2023/07/13 14:48:12.45532814,"{'stamp': {'secs': 1689252492, 'nsecs': 39822773}, 'frame_id': 'map'}","{'position': {'x': -1.6162053346633911, 'y': -0.27379533648490906, 'z': -1.5968897342681885}, 'orientation': {'x': 0.01369901300188184, 'y': 0.019447165311341198, 'z': -0.9970567981454687, 'w': -0.07288268708022377}}"
2023/07/13 14:48:12.148033397,"{'stamp': {'secs': 1689252492, 'nsecs': 137903636}, 'frame_id': 'map'}","{'position': {'x': -1.617012619972229, 'y': -0.2719433009624481, 'z': -1.5963428020477295}, 'orientation': {'x': 0.013717669947995075, 'y': 0.01946701078649151, 'z': -0.9970567801215592, 'w': -0.07287412596982235}}"
2023/07/13 14:48:12.250277890,"{'stamp': {'secs': 1689252492, 'nsecs': 248683071}, 'frame_id': 'map'}","{'position': {'x': -1.616774082183838, 'y': -0.2674488425254822, 'z': -1.5943002700805664}, 'orientation': {'x': 0.013714942294161979, 'y': 0.019453379818282074, 'z': -0.9970584529864647, 'w': -0.07285538895477323}}"
2023/07/13 14:48:12.347768481,"{'stamp': {'secs': 1689252492, 'nsecs': 346059218}, 'frame_id': 'map'}","{'position': {'x': -1.6170475482940674, 'y': -0.26511073112487793, 'z': -1.593785285949707}, 'orientation': {'x': 0.013698374757075396, 'y': 0.019446410831846735, 'z': -0.997058392694513, 'w': -0.07286119126261986}}"
2023/07/13 14:48:12.435950673,"{'stamp': {'secs': 1689252492, 'nsecs': 435162958}, 'frame_id': 'map'}","{'position': {'x': -1.6168529987335205, 'y': -0.2589980363845825, 'z': -1.5926334857940674}, 'orientation': {'x': 0.01369664539893113, 'y': 0.019399543769093607, 'z': -0.9970611484026437, 'w': -0.07283629557005317}}"
2023/07/13 14:48:12.538785809,"{'stamp': {'secs': 1689252492, 'nsecs': 537061046}, 'frame_id': 'map'}","{'position': {'x': -1.6170215606689453, 'y': -0.25455427169799805, 'z': -1.5926036834716797}, 'orientation': {'x': 0.013720057248610336, 'y': 0.01937312070049152, 'z': -0.997061871445485, 'w': -0.07282902397427926}}"
